Time,Ay,Bk_Stat,GearStat,Pitch,Roll,Roll_E,Roll_L1,Roll_L2,Roll_R1,Roll_R2,Rot_L1,Rot_L2,Rot_R1,Rot_R2,Steer_SW,Vx,VxTarget,Vxz_Fwd,Xo,Xpreview,X_Design,X_L1,X_L2,X_R1,X_R2,X_Target,Yaw,Yaw_L1,Yaw_L2,Yaw_R1,Yaw_R2,Yo,Ypreview,Y_Design,Y_L1,Y_L2,Y_R1,Y_R2,Y_Target,Zcg_SM,Zo,Z_L1,Z_L2,Z_R1,Z_R2
0, -0.001776605636331, 0, 6, 2.01196759821, 0.1003533393543, 0.1004152438468, 1.106758026836, 1.59240579305, -0.90605217801, -1.391701064111, 0.005578097160298, 0.005604275657146, 0.005580043865404, 0.005602329682862, 0, 99.96459874838, 100, 100, 87.0358263826, 17.40704583707, 87.0358263826, 87.41006218464, 85.38402886262, 86.68118827237, 84.65269253849, 87.0358263826, -29.5003960789, -29.3391511782, -29.75648407427, -29.66868165321, -29.25138193968, -49.24190177042, -9.848591535138, -49.24190177042, -48.60407299563, -47.45486733685, -49.89214756663, -48.74729351113, -49.24190177042, 45.53908883468, 45.12341948914, 45.45451164932, 45.51633059392, 45.45191943629, 45.51372962341
0.025, -0.1162476174194, 0, 6, 2.009357791745, 0.07923951272002, 0.07928826601529, 1.016400159313, 1.634693246619, -1.033709805438, -1.471670801582, 0.3767731233801, 0.3764672503389, 0.3759496712423, 0.3763826750791, -15.96437753339, 99.96602746457, 100, 100.0011131534, 87.63979541357, 104.0121553878, 87.64004543442, 88.0146633768, 85.98832591467, 87.28459108424, 85.25678276862, 87.64004543442, -29.50987290854, -30.18531295402, -29.76868634656, -30.51338747975, -29.25921731338, -49.584206414, -58.85133401877, -49.58376452717, -48.946627684, -47.7967884201, -50.23402045684, -49.0890945313, -49.58376452717, 45.52064665561, 45.10502952681, 45.43582993972, 45.49761398854, 45.4338125929, 45.49535346246
0.05, -0.118320333324, 0, 6, 2.002134655341, 0.02963319837593, 0.02965129972263, 0.9735279692839, 1.606893140166, -1.072884965328, -1.51382281913, 0.747826776069, 0.7474977666698, 0.7464258753016, 0.7469103192085, -15.8042119557, 99.96459790315, 100, 99.99932196661, 88.24302778291, 104.6084652621, 88.24428399788, 88.6184828985, 86.5930189918, 87.88742310548, 85.86048891743, 88.24428399788, -29.55414567043, -30.23400217634, -29.81399762091, -30.56389844473, -29.30542193948, -49.92787087373, -59.2071138543, -49.9256507166, -49.29031930726, -48.13891569371, -50.5771533834, -49.43066430184, -49.9256507166, 45.50227181261, 45.08679949919, 45.41723157844, 45.47863267856, 45.41592320909, 45.47717865626
0.075, -0.1207881896353, 0, 6, 1.992557339287, -0.03014968215361, -0.03016792312983, 0.9294120526084, 1.579184319033, -1.109266236214, -1.546543980798, 1.119120144241, 1.118708804303, 1.116660728928, 1.117142969965, -15.51648364084, 99.96151164226, 100, 99.99596616161, 88.84552578049, 105.1984372647, 88.84851533201, 89.2219615665, 87.19807434573, 88.48914112562, 86.46377373599, 88.84851533201, -29.63282611506, -30.30774288352, -29.89587932623, -30.6382229454, -29.38764458963, -50.27282753313, -59.57399081004, -50.26754415086, -49.63547330882, -48.48129759787, -50.92131502796, -49.77204064753, -50.26754415086, 45.48396682224, 45.06868694394, 45.39874228365, 45.45973905671, 45.39796886444, 45.4590571536
0.1, -0.1325043113189, 0, 6, 1.98355478709, -0.08076105013315, -0.08080947097275, 0.8900275685388, 1.569411519268, -1.140280448636, -1.562257880982, 1.490595099925, 1.490045875617, 1.486687905916, 1.48711081304, -15.12573858182, 99.95654742982, 100, 99.99084152871, 89.44738035467, 105.7832369391, 89.45270784274, 89.82507381995, 87.80333207439, 89.08988271403, 87.06663445446, 89.45270784274, -29.73880204969, -30.39893770013, -30.00663062399, -30.72892025949, -29.49820469617, -50.61884080168, -59.94979856304, -50.60942589393, -49.98190973751, -48.82400781407, -51.26641209851, -50.11338279614, -50.60942589393, 45.4657234054, 45.05062474334, 45.38038412127, 45.44111858178, 45.37984759792, 45.44085507261
0.125, -0.1484810235942, 0, 6, 1.977079750745, -0.1155582297357, -0.1156270616901, 0.8600096370523, 1.57553792196, -1.161881163594, -1.562439881764, 1.862192888897, 1.86145997279, 1.8565461861, 1.856856410145, -14.65568247298, 99.94994968537, 100, 99.98418935583, 90.0486230432, 106.3639914892, 90.05683680485, 90.42776508437, 88.40859715987, 89.68975799196, 87.66904306585, 90.05683680485, -29.86508539588, -30.50254467248, -30.13722146253, -30.83129786006, -29.62901793288, -50.96579614804, -60.33244208045, -50.95128089485, -50.32950392614, -49.16716908314, -51.61240658797, -50.45490614405, -50.95128089485, 45.44752696857, 45.03255881129, 45.36208462653, 45.42273333595, 45.36161754997, 45.42259758344
0.15, -0.1653460471376, 0, 6, 1.973914617034, -0.1385952143898, -0.1386775040699, 0.8365081921177, 1.587666939468, -1.176863688133, -1.553528608161, 2.23386443036, 2.232912042004, 2.226270584083, 2.226432694997, -14.12609588275, 99.94186650852, 100, 99.97615217901, 90.64923737079, 106.941643862, 90.66088675731, 91.02996694104, 89.01367973081, 90.28883668155, 88.27095347294, 90.66088675731, -30.00574016729, -30.61430784776, -30.2807909367, -30.94165663816, -29.77352922222, -51.31368552851, -60.72017307085, -51.29309934422, -50.67819098664, -49.5109260313, -51.95930797979, -50.79683536157, -51.29309934422, 45.42935780694, 45.01445358884, 45.3437528446, 45.40445430376, 45.3433500586, 45.40436376566
0.175, -0.1811008060226, 0, 6, 1.973917253964, -0.157641588861, -0.157735187461, 0.8140565271081, 1.59714548597, -1.190635371887, -1.544476826032, 2.605570075261, 2.604376012768, 2.595891142537, 2.595899704628, -13.55351740827, 99.93290741843, 100, 99.96732704981, 91.24919134191, 107.5169892262, 91.26485000298, 91.63161156112, 89.61840924255, 90.88716456921, 88.87231341636, 91.26485000298, -30.15573059656, -30.73071731681, -30.43225728622, -31.05679181002, -29.92670103584, -51.66254645636, -61.11153213783, -51.6348758261, -51.02793932717, -49.85542440066, -52.30714689689, -51.1393820599, -51.6348758261, 45.41119152873, 44.9962875801, 45.32533010515, 45.3861637461, 45.3250802025, 45.38620028169
0.2, -0.1950409317009, 0, 6, 1.976430416226, -0.1785977770425, -0.1787040886361, 0.7889184943051, 1.599868297174, -1.20707169746, -1.540940565836, 2.977277546899, 2.975832728859, 2.965435724917, 2.96528637973, -12.952183127, 99.92345102544, 100, 99.95807598865, 91.8484611741, 108.0907233081, 91.86872236599, 92.23264013769, 90.22263872661, 91.48477832928, 89.47307326495, 91.86872236599, -30.31069697943, -30.84879177477, -30.58770781141, -31.17381549841, -30.08451663276, -52.01241668894, -61.5052681914, -51.976615626, -51.37873060252, -50.20079928886, -52.65595821274, -51.48273579782, -51.976615626, 45.3930022687, 44.9780482197, 45.30679993921, 45.36779999242, 45.30680370761, 45.36809538475
0.225, -0.2071746624275, 0, 6, 1.980671639541, -0.2033013704504, -0.2034229073452, 0.7606748799418, 1.595838107253, -1.227086503996, -1.543846979736, 3.348960855485, 3.347267063379, 3.334929098736, 3.334623534389, -12.3340122123, 99.91382554067, 100, 99.94869968, 92.4470370724, 108.6634394295, 92.47249936832, 92.8330045821, 90.82624607046, 92.08170856457, 90.07318990833, 92.47249936832, -30.46697242056, -30.96615277128, -30.74408257251, -31.29041482814, -30.24366344855, -52.36331614809, -61.90033846401, -52.31832762455, -51.73055212725, -50.54716676108, -53.00577384005, -51.82705737884, -52.31832762455, 45.37476677052, 44.95972803333, 45.28817928296, 45.34935711277, 45.28849551537, 45.3500007282
0.25, -0.2174602174963, 0, 6, 1.985866773287, -0.2303214294763, -0.2304598431779, 0.7315741206254, 1.587067294412, -1.249379219912, -1.551318631609, 3.720599768382, 3.718665936574, 3.704392911358, 3.703937559102, -11.70879618568, 99.90429764259, 100, 99.93942748922, 93.04492004667, 109.2356316282, 93.07618815169, 93.43266658757, 91.42913108644, 92.67798089789, 90.67262724741, 93.07618815169, -30.62155255667, -31.08132481069, -30.89880121712, -31.40522748316, -30.40126081457, -52.7152500876, -62.29589757823, -52.66000499682, -52.08339594793, -50.894623195, -53.35662228506, -52.17248035397, -52.66000499682, 45.35646911597, 44.94132665529, 45.26950714987, 45.33085602887, 45.27014222633, 45.33186267015
0.275, -0.2253337620492, 0, 6, 1.991207922418, -0.2568699693904, -0.2570251697833, 0.7047213142423, 1.575754082555, -1.271960880326, -1.560751508543, 4.092178763264, 4.090017507724, 4.073846388556, 4.073250027696, -11.08419319021, 99.89506794904, 100, 99.93043149692, 93.64211612531, 109.8076921143, 93.67979797926, 94.03159531475, 92.03121388082, 93.27361614403, 91.27135589715, 93.67979797926, -30.7720956646, -31.19199264236, -31.04946058572, -31.51555601457, -30.5548644758, -53.06821888306, -62.69129491288, -53.00164149706, -52.43725806172, -51.24324550562, -53.70853004956, -52.51911198296, -53.00164149706, 45.33810304303, 44.92285399794, 45.2508242294, 45.31231681385, 45.25174673506, 45.31364155768
0.3, -0.2308156367365, 0, 6, 1.995857849491, -0.2803804333529, -0.2805506314714, 0.6825696489432, 1.56404261252, -1.292687671824, -1.569887273544, 4.46368799873, 4.46131002813, 4.443304166505, 4.442577476209, -10.46558238504, 99.88626919211, 100, 99.92182386254, 94.23863190928, 110.3799049511, 94.28333913765, 94.62976872789, 92.6324356273, 93.86862754686, 91.86935351061, 94.28333913765, -30.91694431734, -31.29745618203, -31.19458167025, -31.62065769387, -30.70252379947, -53.42222458687, -63.08607766345, -53.34323146769, -52.79213859472, -51.5930903039, -54.06151947902, -52.8670316491, -53.34323146769, 45.31967025321, 44.90432849853, 45.23216053929, 45.2937477426, 45.23332250855, 45.29531715782
0.325, -0.2339389513665, 0, 6, 1.99909384828, -0.2993878487083, -0.2995701751153, 0.6662460982071, 1.553351823257, -1.310274200797, -1.577998530493, 4.835121359487, 4.8325376803, 4.812777659661, 4.811932385052, -9.85675100626, 99.87797495557, 100, 99.91365397554, 94.83447252996, 110.952476819, 94.88682153817, 95.22717185528, 93.23275465544, 94.46302500432, 92.4666046487, 94.88682153817, -31.05493428678, -31.39703798434, -31.3329533613, -31.71983748766, -30.84284235942, -53.77727114844, -63.47993214074, -53.68476904668, -53.14803710743, -51.94419675507, -54.4156070294, -53.21629561205, -53.68476904668, 45.30117929426, 44.88577314975, 45.21353480172, 45.2751523924, 45.21488994236, 45.27689638796
0.35, -0.2346436537645, 0, 6, 2.000515563504, -0.313619999383, -0.3138112651982, 0.6557121112455, 1.544070804547, -1.324357561156, -1.58556916958, 5.206474952652, 5.203698135311, 5.182276048133, 5.181324122052, -9.260538395857, 99.87024777879, 100, 99.90596695029, 95.42964168784, 111.5255680821, 95.49025325503, 95.82379639697, 93.83214269189, 95.05681837488, 93.06310040267, 95.49025325503, -31.18521121918, -31.49014940468, -31.46371022868, -31.81250562837, -30.97470079148, -54.13336100118, -63.87262735302, -54.02624733942, -53.50494881169, -52.29658921957, -54.77080110109, -53.56694137964, -54.02624733942, 45.28264620193, 44.86721199048, 45.19495858731, 45.25654089447, 45.19647238787, 45.25840937265
0.375, -0.2329105969617, 0, 6, 2.000069725271, -0.3235258387382, -0.323723057924, 0.6503159648366, 1.535939266079, -1.33513782935, -1.593356082817, 5.577746401178, 5.574790124227, 5.551806529312, 5.550759519389, -8.67912742496, 99.86312824015, 100, 99.89879581386, 96.02414398905, 112.0993065321, 96.09364080338, 96.41964118292, 94.43058349292, 95.65001947553, 93.65883833156, 96.09364080338, -31.30714992941, -31.57632129171, -31.58622661323, -31.89819434309, -31.09734258059, -54.49049069757, -64.2639893006, -54.36766067421, -53.86286237614, -52.65027748862, -55.12710044613, -53.91898870841, -54.36766067421, 45.2640934627, 44.84866856985, 45.17644231706, 45.23793004961, 45.17809181007, 45.23989246821
0.4, -0.2287440909136, 0, 6, 1.997927052836, -0.3297156155869, -0.3299161774682, 0.6492734776363, 1.528540121695, -1.342551919567, -1.601752818377, 5.948934756903, 5.945813201256, 5.921374299977, 5.920243270214, -8.114140018108, 99.85663700986, 100, 99.89217030747, 96.61798790613, 112.6737913404, 96.69698465458, 97.01471287695, 95.02807275708, 96.24264256248, 94.25382295349, 96.69698465458, -31.42032803946, -31.65556606466, -31.7000539518, -31.97723496258, -31.21038707145, -54.84864761707, -64.65389223801, -54.70901505847, -54.22175874131, -53.00525644339, -55.48449306272, -54.27243954543, -54.70901505847, 45.24554696127, 44.83016535094, 45.15799470338, 45.21934049652, 45.15976223364, 45.22137733198
0.425, -0.2223322020079, 0, 6, 1.994459575442, -0.3326185733198, -0.3328201990336, 0.6516522671361, 1.521601463897, -1.34640282501, -1.610600586296, 6.32004004362, 6.316767634675, 6.290983396573, 6.289778446341, -7.566699092253, 99.85077278959, 100, 99.88612118996, 97.21118728868, 113.2490975493, 97.30028154516, 97.60902563876, 95.62461771123, 96.83470543605, 94.84806618337, 97.30028154516, -31.52449671684, -31.7278739222, -31.80488382484, -32.04956821913, -31.3137344558, -55.2078078101, -65.04224960928, -55.05031712959, -54.58160953397, -53.36150629911, -55.84295620385, -54.62727869923, -55.05031712959, 45.22703079813, 44.81171896888, 45.13960948963, 45.20079376993, 45.14147823322, 45.20288735203
0.45, -0.2139437144899, 0, 6, 1.990306018725, -0.3324429732276, -0.3326436535997, 0.6565984450444, 1.515048887232, -1.34659940761, -1.61928930526, 6.691063065002, 6.68765434681, 6.660636800549, 6.659366939559, -7.037461885286, 99.84551554392, 100, 99.88066305987, 97.80376056069, 113.8252776966, 97.90352745518, 98.20260038225, 96.2202361916, 97.42622976201, 95.44158701845, 97.90352745518, -31.61956573451, -31.79298140575, -31.90054658037, -32.11457489063, -31.40738018554, -55.56793627302, -65.42901000915, -55.39157261129, -54.94237808867, -53.71899381531, -56.20245715216, -54.98347531273, -55.39157261129, 45.20856223709, 44.79333385959, 45.12126815535, 45.18230985708, 45.12322036638, 45.18443979079
0.475, -0.2038444980281, 0, 6, 1.986314176171, -0.3292948868317, -0.3294928698455, 0.6635562597491, 1.508747159398, -1.343047620469, -1.627365909001, 7.062005864789, 7.058474204772, 7.030336025442, 7.029009604085, -6.526613874726, 99.84085097422, 100, 99.87581180539, 98.39572958905, 114.4023559746, 98.5067174373, 98.79546444464, 96.81495639963, 98.01723971782, 96.03441091788, 98.5067174373, -31.70562891016, -31.85097327579, -31.98698279555, -32.17222126696, -31.49162083751, -55.9289895968, -65.81416571039, -55.7327866981, -55.3040224011, -54.07767356103, -56.56295450891, -55.34098386228, -55.7327866981, 45.19015032364, 44.7750020382, 45.10294917016, 45.16390424207, 45.10496672716, 45.16604833069
0.5, -0.192226131065, 0, 6, 1.983331120387, -0.3233100086908, -0.3235038096116, 0.6725528733297, 1.502302233005, -1.335939707876, -1.634269831686, 7.432872391333, 7.429228056177, 7.400080870779, 7.398705458942, -6.033661266655, 99.83673682679, 100, 99.87155919845, 98.98711940731, 114.9803194401, 99.10984685996, 99.38765170538, 97.40881697698, 98.60776049971, 96.62656898431, 99.10984685996, -31.78300748882, -31.90338569748, -32.06426667395, -32.22326417628, -31.56698250727, -56.29091936578, -66.19776612421, -56.07396475851, -55.66649803542, -54.43748861833, -56.92439997295, -55.69974432738, -56.07396475851, 45.17179539532, 44.75670682879, 45.08463151216, 45.14557833417, 45.08669719785, 45.14771547858
0.525, -0.1797434097091, 0, 6, 1.981904549536, -0.3147311627743, -0.3149195497596, 0.6828534416824, 1.495687707111, -1.325574978411, -1.639233110236, 7.803667536462, 7.799919894786, 7.769869804008, 7.768451515865, -5.55727536173, 99.83311838097, 100, 99.86787903339, 99.5779583352, 115.5591093071, 99.7129130117, 99.97919957935, 98.00186692667, 99.19781757514, 97.21809702796, 99.7129130117, -31.85228665031, -31.94936253999, -32.13292069517, -32.26761005792, -31.63428355885, -56.653675702, -66.57993065241, -56.41511324232, -56.02975902556, -54.79837186969, -57.28674093549, -56.05968283334, -56.41511324232, 45.15348737982, 44.73842716666, 45.0662951174, 45.12731245938, 45.0683937379, 45.12942604473
0.55, -0.1668271747626, 0, 6, 1.982179255292, -0.3040153630945, -0.304197386331, 0.6941086366197, 1.48896202031, -1.312509674897, -1.641932491243, 8.174397824209, 8.170555224047, 8.13970013893, 8.138244007721, -5.095766290408, 99.82994743932, 100, 99.86473798439, 100.168277912, 116.1386458148, 100.3159128324, 100.5701492932, 98.59416111623, 99.78743695744, 97.80903422335, 100.3159128324, -31.9141683045, -31.98936001823, -32.1935423954, -32.30575067791, -31.69438628634, -57.01720874307, -66.96080832675, -56.75623627649, -56.39375871794, -55.16025112963, -57.64992157158, -56.4207185433, -56.75623627649, 45.13520632599, 44.72014021382, 45.04791970721, 45.10907410478, 45.05004075262, 45.1111554763
0.575, -0.1539205558801, 0, 6, 1.984013777734, -0.2917962560084, -0.291971286862, 0.7058349764509, 1.482253702968, -1.297589052524, -1.642568100348, 8.545069986694, 8.541140183356, 8.509568967825, 8.508079221019, -4.647422451721, 99.82718127977, 100, 99.86209146713, 100.7581119958, 116.7188462972, 100.9188533021, 101.1605436219, 99.1857568285, 100.3766462255, 98.39942184584, 100.9188533021, -31.96936718873, -32.0237700066, -32.24687481345, -32.33814761033, -31.74805620862, -57.38146855493, -67.34054903228, -57.09732232452, -56.75844906924, -55.52305272699, -58.01388414936, -56.78276848659, -57.09732232452, 45.11692591467, 44.70182252278, 45.02948730306, 45.09082875918, 45.03162625688, 45.09287810911
0.6, -0.1413453768077, 0, 6, 1.987068609873, -0.2787727097468, -0.2789404440354, 0.717853294139, 1.475693347681, -1.281936706832, -1.641707871069, 8.915690556174, 8.911680984914, 8.879473551739, 8.877953799568, -4.210672145355, 99.82478888467, 100, 99.85988089392, 101.3474957931, 117.2996340235, 101.5217461964, 101.7504257068, 99.77671112716, 100.9654745992, 98.98930177354, 101.5217461964, -32.01855778892, -32.05293818453, -32.29372601668, -32.3652702563, -31.79593397095, -57.74640554854, -67.71928993823, -57.4383767972, -57.12378203633, -55.8867040651, -58.37857052644, -57.145750908, -57.4383767972, 45.09861932302, 44.68345412232, 45.01099687379, 45.07254648766, 45.01315256195, 45.07457144734
0.625, -0.1292317552539, 0, 6, 1.990765741903, -0.2655707024617, -0.2657310886043, 0.7302767750157, 1.469399627876, -1.266607274294, -1.640020499948, 9.286265670251, 9.282183533822, 9.249411456749, 9.247864830031, -3.78415640642, 99.82275218594, 100, 99.85805267382, 101.9364659276, 117.8809424022, 102.1245969044, 102.3398382141, 100.3670791605, 101.5539523183, 99.57871537096, 102.1245969044, -32.06234788731, -32.07725088418, -32.33488369212, -32.38766665475, -31.83855868284, -58.1119711497, -68.09714950788, -57.77940725599, -57.48971009421, -56.25113522759, -58.74392351299, -57.50958739061, -57.77940725599, 45.08026572941, 44.66502582901, 44.99246435522, 45.05420415445, 44.99463723772, 45.05621657459
0.65, -0.11765819299, 0, 6, 1.994326765961, -0.2526449186067, -0.2527980450001, 0.7431804310147, 1.463563833114, -1.252331839963, -1.638072555008, 9.656800742791, 9.652653116267, 9.61938067116, 9.617809955082, -3.366809917043, 99.82105467541, 100, 99.85655865367, 102.5250604354, 118.4627195633, 102.7274122169, 102.9288226656, 100.9569129921, 102.1421101484, 100.1677029361, 102.7274122169, -32.1012528037, -32.0970437555, -32.37104112289, -32.40578836713, -31.87637500301, -58.47811748317, -68.47422079491, -58.12042205346, -57.85618544695, -56.61627969998, -59.10988741989, -57.87420409498, -58.12042205346, 45.06185309817, 44.64654126251, 44.97391080144, 45.03578547933, 44.97610157564, 45.03779799625
0.675, -0.106712933995, 0, 6, 1.996939359086, -0.2402439472145, -0.2403899393172, 0.7565592362185, 1.458700103007, -1.239470622961, -1.636391165148, 10.02730024959, 10.02309425124, 9.989379635698, 9.987787477683, -2.957923318892, 99.81967650393, 100, 99.85534369184, 103.1133177646, 119.0449318683, 103.3301992391, 103.5174189332, 101.5462609503, 102.7299791375, 100.7563034805, 103.3301992391, -32.13567609385, -32.11267819078, -32.40281891831, -32.42005430306, -31.90967150274, -58.84479664747, -68.85056626955, -58.46142971868, -58.22315978949, -56.98207501907, -59.47640810377, -58.23953265229, -58.46142971868, 45.04337859817, 44.62801391879, 44.95535776222, 45.01728779478, 44.95756568307, 45.01931015446
0.7, -0.09637901816892, 0, 6, 1.998040785367, -0.2284284039709, -0.228567369139, 0.7703762663823, 1.455270045134, -1.228086177044, -1.635553734942, 10.39776754227, 10.39351052578, 10.35940719377, 10.35779624208, -2.557165706885, 99.81860645518, 100, 99.85436517069, 103.7012748278, 119.6275653046, 103.932963615, 104.1056646864, 102.1351670856, 103.317590337, 101.3445544173, 103.932963615, -32.165902229, -32.12457171924, -32.43074718571, -32.43090400496, -31.93855565792, -59.21196000421, -69.22621602332, -58.80243795362, -58.5905845361, -57.34846314761, -59.84343304839, -58.60551071945, -58.80243795362, 45.02485010047, 44.6094629741, 44.93682605387, 44.99872872954, 44.93904791684, 45.00076560887
0.725, -0.08655473841826, 0, 6, 1.997456681739, -0.2171322468434, -0.2172642626301, 0.7845840724394, 1.453461526455, -1.217805923926, -1.635919473852, 10.76820504989, 10.7639044492, 10.72946225098, 10.72783450197, -2.164482358181, 99.81784069344, 100, 99.85359992799, 104.2889657537, 120.2106202125, 104.535709466, 104.69359544, 102.7236713068, 103.9049739069, 101.9324911279, 104.535709466, -32.19212685233, -32.13337838101, -32.45518197749, -32.43940906413, -31.96309064122, -59.57955844146, -69.60117653594, -59.14345371896, -58.95841166609, -57.71538967597, -60.21091135489, -58.97208101209, -59.14345371896, 45.00628604192, 44.59091036405, 44.91833538373, 44.98013823904, 44.92056540636, 44.98218963281
0.75, -0.07742187350702, 0, 6, 1.995306178189, -0.20622974993, -0.2063548669912, 0.7990916013803, 1.453187381009, -1.208523788267, -1.636839641186, 11.13861450802, 11.13427772801, 11.09954426577, 11.0978959377, -1.779926779173, 99.81737970391, 100, 99.85304387291, 104.8764219806, 120.7941025065, 105.1384365587, 105.2812446223, 103.3118104792, 104.4921593164, 102.5201469027, 105.1384365587, -32.21450595738, -32.13950680985, -32.47630803932, -32.44581621138, -31.98342660714, -59.9475436443, -69.97544500583, -59.48448479753, -59.32659458291, -58.08280293925, -60.57879463672, -59.33918978157, -59.48448479753, 44.98771223671, 44.57237950456, 44.89990346614, 44.96154867643, 44.90213407338, 44.96361106887
0.775, -0.06851175621815, 0, 6, 1.991888120817, -0.1956318115902, -0.1957500924698, 0.8136204484483, 1.454116168969, -1.199885673954, -1.639130465409, 11.50899677817, 11.50463082334, 11.46965261637, 11.4679878939, -1.403570587394, 99.81709475324, 100, 99.85259142767, 105.4636716917, 121.378019569, 105.7411399841, 105.868642743, 103.8996181687, 105.0791737624, 103.1075523634, 105.7411399841, -32.23317417588, -32.14305794558, -32.49418026649, -32.44979838949, -31.99972693537, -60.31586949462, -70.34901500761, -59.8255246432, -59.69508833967, -58.45065416821, -60.94703746551, -59.70678662685, -59.8255246432, 44.96915646867, 44.55389217246, 44.88153426405, 44.94298813366, 44.88375864101, 44.94505650039
0.8, -0.05988011118538, 0, 6, 1.987721590224, -0.1852105435103, -0.1853220553324, 0.8276332552956, 1.456011777131, -1.191171402403, -1.641991613788, 11.87935041374, 11.87496510191, 11.83978616323, 11.83811494077, -1.035199083005, 99.8170597325, 100, 99.85235323967, 106.0507404138, 121.9623698177, 106.3438227857, 106.4558187062, 104.4871275616, 105.666041724, 103.6947367461, 106.3438227857, -32.24830759462, -32.14384996863, -32.50881485376, -32.45103698543, -32.01231957936, -60.68449107262, -70.7218934427, -60.16656595367, -60.063849737, -58.81889547279, -61.3155962877, -60.07482152105, -60.16656595367, 44.95064169494, 44.53546089238, 44.86321399577, 44.92447968731, 44.86542469922, 44.92654609972
0.825, -0.05164845013691, 0, 6, 1.983538089913, -0.1748125257157, -0.174917334251, 0.8405683793223, 1.458689275867, -1.181740640405, -1.644664947966, 12.24967502776, 12.24528169219, 12.20994359578, 12.20827003078, -0.6746026001049, 99.81718196843, 100, 99.85226961996, 106.6376510532, 122.5471408333, 106.9464866627, 107.042800398, 105.0743721005, 106.2527856888, 104.2817283646, 106.9464866627, -32.26013507967, -32.14170765605, -32.52027690847, -32.44932614087, -32.02156181645, -61.05336500599, -71.09410417482, -60.50760066723, -60.43283863553, -59.18747998369, -61.68442949549, -60.44324469646, -60.50760066723, 44.93218226772, 44.51708531489, 44.84492264807, 44.90604215833, 44.84710999413, 44.90809594861
0.85, -0.04365928818917, 0, 6, 1.980158266837, -0.164327617253, -0.1644258039122, 0.8528064711533, 1.461623239299, -1.171305242948, -1.646614148489, 12.61998269385, 12.61558153039, 12.58012304061, 12.57844991591, -0.321530373899, 99.81744518661, 100, 99.85235917241, 107.2244240786, 123.1323146638, 107.5491321481, 107.6296147033, 105.6613838729, 106.8394264156, 104.8685539043, 107.5491321481, -32.26890369684, -32.13723156054, -32.52871946202, -32.44498444577, -32.02783733071, -61.42244955317, -71.46567832214, -60.84862006382, -60.80201760281, -59.55636199003, -62.05349682854, -60.81200739722, -60.84862006382, 44.9137835236, 44.49875428367, 44.82664000825, 44.88768354619, 44.82879282265, 44.88971418301
0.875, -0.0360796682825, 0, 6, 1.978216369639, -0.1537063283647, -0.1537979885808, 0.8640126190878, 1.464275351909, -1.15977394414, -1.647211479811, 12.99027087792, 12.98586558107, 12.95032325789, 12.94865245086, 0.02418529160514, 99.81783047699, 100, 99.85263665521, 107.8110803914, 123.7178777006, 108.1517609584, 108.2162875692, 106.2481933352, 107.4259853473, 105.4552389988, 108.1517609584, -32.27483238609, -32.13028344509, -32.53413393064, -32.43796875682, -32.0315650968, -61.79170500382, -71.83663992144, -61.18961609492, -61.17135041883, -59.92549741355, -62.42275944264, -61.18106299135, -61.18961609492, 44.89544048166, 44.48045007094, 44.80834642668, 44.86939212292, 44.81045305905, 44.87139052884
0.9, -0.02892360390312, 0, 6, 1.977968348361, -0.142984792234, -0.1430700374225, 0.8742344210481, 1.466276655159, -1.147227089787, -1.646058325233, 13.36054013617, 13.35613491734, 13.3205432715, 13.31887591161, 0.3626723026359, 99.81830043501, 100, 99.85308607641, 108.3976415204, 124.3038181032, 108.754376779, 108.8028440433, 106.8348292897, 108.0124833328, 106.0418079606, 108.754376779, -32.27812147768, -32.12101520584, -32.53654462198, -32.42842217684, -32.03311604604, -62.16109515889, -72.20700944364, -61.53058182822, -61.54080302044, -60.29484465232, -62.79218044394, -61.55036744399, -61.53058182822, 44.87713725024, 44.46215164174, 44.79002248296, 44.85114135895, 44.79207235011, 44.85309996661
0.925, -0.02220817708582, 0, 6, 1.979347374609, -0.1322328616153, -0.1323118066749, 0.8835593009696, 1.46755211531, -1.133838849168, -1.643113972581, 13.73079208528, 13.72639076029, 13.69078245323, 13.68911910113, 0.6939711545463, 99.81883442572, 100, 99.85369460426, 108.9841295907, 124.8901284332, 109.3569954632, 109.3893080022, 107.4213188884, 108.5989408334, 106.6282841579, 109.3569954632, -32.27893864256, -32.10954365697, -32.53606516402, -32.41648012644, -32.03272117066, -62.5305867323, -72.57679981258, -61.87152379446, -61.91034309163, -60.66436507891, -63.16172487476, -61.91987988414, -61.87152379446, 44.85884960335, 44.44383611422, 44.77165035308, 44.83290022855, 44.77363299303, 44.83481230551
0.95, -0.01592580930021, 0, 6, 1.982102873613, -0.1214894189612, -0.1215621521856, 0.8923459983274, 1.468294091728, -1.119950158103, -1.638605492765, 14.10102832794, 14.09663435258, 14.06104056345, 14.05938135252, 1.018003033795, 99.81941999603, 100, 99.85443358283, 109.5705667907, 125.4768072163, 109.9596161916, 109.9757021269, 108.0076874236, 109.1853782947, 107.2146900098, 109.9596161916, -32.27741086282, -32.09589408508, -32.5328839225, -32.40222653154, -32.03046260695, -62.9001484357, -72.94601411097, -62.21244940788, -62.27994014561, -61.03402311719, -63.53135955821, -62.28956280792, -62.21244940788, 44.84054981159, 44.42548079569, 44.75322262537, 44.81464091522, 44.75512497195, 44.81649907131
0.975, -0.0100264584665, 0, 6, 1.985785697772, -0.110732193852, -0.1107987336319, 0.9012776728758, 1.468850936814, -1.106105885544, -1.632877553393, 14.47125032831, 14.46686678021, 14.43131774333, 14.42966239231, 1.334498048565, 99.82005796916, 100, 99.85526918643, 110.1569756599, 126.0638589921, 110.5622414379, 110.5620481163, 108.5939582308, 109.7718165327, 107.801046901, 110.5622414379, -32.27362483717, -32.08003718976, -32.52721163152, -32.3857700313, -32.02631701009, -63.26975087116, -73.31464566613, -62.55336459754, -62.64956561152, -61.40378600693, -63.90105303546, -62.65938195212, -62.55336459754, 44.82221342135, 44.40707025887, 44.73475136438, 44.79634128915, 44.73655811081, 44.79813626007
1, -0.004438115690294, 0, 6, 1.989715922034, -0.09990089844983, -0.09996116759123, 0.9109760857676, 1.469596206387, -1.09274692608, -1.626285007464, 14.84145925199, 14.83708887082, 14.80161444468, 14.79996223867, 1.643366488259, 99.82075195427, 100, 99.85617244197, 110.7433794553, 126.6512941876, 111.1648756295, 111.1483666544, 109.1801527405, 110.3582761626, 108.3873752056, 111.1648756295, -32.26762877449, -32.06183159035, -32.51922708463, -32.36709867423, -32.02020745956, -63.63936663182, -73.68267837758, -62.89427637445, -63.01919182201, -61.77362341236, -64.27077563083, -63.02930600522, -62.89427637445, 44.80382393416, 44.38860166804, 44.71625731146, 44.77798401155, 44.71795197851, 44.77970456568
1.025, 0.0009321193304207, 0, 6, 1.993078725188, -0.08889894854646, -0.08895276184805, 0.9218558405952, 1.471031207151, -1.080028237871, -1.619226234258, 15.21165578328, 15.20730112826, 15.17193136294, 15.17028111771, 1.944519124535, 99.82149623219, 100, 99.85710539323, 111.3298018042, 127.2391293088, 111.7675240193, 111.7346773172, 109.7662906725, 110.9447773593, 108.9736944217, 111.7675240193, -32.25943238469, -32.04090840981, -32.5090834073, -32.34592284328, -32.01201012736, -64.00896957703, -74.05008636485, -63.23519221651, -63.38879117424, -62.1435070266, -64.64049911476, -63.39930619766, -63.23519221651, 44.78537356802, 44.37008361313, 44.69776187412, 44.75955913201, 44.69932682898, 44.76119102169
1.05, 0.006148224404898, 0, 6, 1.995170284733, -0.07758042343989, -0.07762748394297, 0.9341352895538, 1.473815984654, -1.06790012837, -1.61222843766, 15.58184022757, 15.57750365361, 15.54226904192, 15.54061944141, 2.237734730015, 99.82228343373, 100, 99.85802568878, 111.9162655133, 127.8273877925, 112.3701911179, 112.3209988911, 110.3523903488, 111.5313395904, 109.560023623, 112.3701911179, -32.24900360448, -32.01732996491, -32.49695941132, -32.32234045318, -32.00148672409, -64.37853328416, -74.41683249982, -63.57611918209, -63.75833576991, -62.51341025024, -65.01019572848, -63.76935598173, -63.57611918209, 44.76686422211, 44.35153213377, 44.67928534733, 44.74107459303, 44.68070171246, 44.74259979852
1.075, 0.01124795347984, 0, 6, 1.995643871601, -0.06579180884235, -0.06583173728999, 0.9478869679728, 1.478448504987, -1.056220897762, -1.60570175796, 15.95201234937, 15.94769623484, 15.91262784814, 15.91097781314, 2.522697083701, 99.82311367531, 100, 99.85890827572, 112.5027910638, 128.4160980319, 112.9728792047, 112.9073491639, 110.9384687269, 112.1179817014, 110.1463812615, 112.9728792047, -32.23628073166, -31.99125373757, -32.48298250917, -32.29651070079, -31.98837200861, -64.74803023923, -74.78287154117, -63.91706306817, -64.12779731472, -62.8833074336, -65.37983793982, -64.13943028053, -63.91706306817, 44.74830876001, 44.33296705936, 44.66084650605, 44.72255452959, 44.66209453354, 44.72395258038
1.1, 0.01626045900234, 0, 6, 1.994505016509, -0.05341412422685, -0.05344650375948, 0.9630822284443, 1.485087214006, -1.044814422635, -1.599764995239, 16.32217154642, 16.31787903134, 16.28300796197, 16.28135739125, 2.799070079087, 99.82400695628, 100, 99.85976041712, 113.089396493, 129.0052894334, 113.5755801534, 113.4937451009, 111.524541701, 112.7047218769, 110.7327848969, 113.5755801534, -32.22119466962, -31.96280036059, -32.46716163753, -32.26853399914, -31.97249573737, -65.11743232975, -75.14815653265, -64.25802075775, -64.49714761581, -63.25317325037, -65.74939860834, -64.50950463534, -64.25802075775, 44.72972920525, 44.31441030319, 44.64246289651, 44.70402929305, 44.64352293129, 44.70527876045
1.125, 0.02119242488702, 0, 6, 1.991965040181, -0.04038671777333, -0.04041113776824, 0.9794502139561, 1.493569027368, -1.033410589136, -1.594272477974, 16.69231714834, 16.68805234955, 16.6534093882, 16.65175936531, 3.066560915035, 99.82498891374, 100, 99.86061676587, 113.67609818, 129.5949891246, 114.178298212, 114.0802031236, 112.1106246836, 113.2915773894, 111.3192513306, 114.178298212, -32.20368742014, -31.93208599143, -32.44939844735, -32.23847789503, -31.9538172546, -65.48671176497, -75.51264420019, -64.5989885565, -64.86635883633, -63.6229824634, -66.11885124821, -64.8795546795, -64.5989885565, 44.71115247845, 44.29588454265, 44.62414508737, 44.68552739239, 44.62499990496, 44.68660720829
1.15, 0.02603821705775, 0, 6, 1.988420604816, -0.02671722434719, -0.02673332155733, 0.99637573461, 1.503529064448, -1.021482356015, -1.588939113356, 17.06244857373, 17.05821645808, 17.02383183322, 17.02218456423, 3.324793701912, 99.82606966802, 100, 99.86152082841, 114.2629107884, 130.1852194817, 114.7810360871, 114.6667390521, 112.6967330792, 113.8785638339, 111.9057967815, 114.7810360871, -32.18372523744, -31.89927506523, -32.42954407736, -32.20637816033, -31.93240075263, -65.85584136742, -75.8762988001, -64.9399675658, -65.23540343974, -63.99270988892, -66.48817020203, -65.24955584741, -64.9399675658, 44.69260381835, 44.27740705031, 44.60588463289, 44.66707200879, 44.60651935754, 44.66796249676
1.175, 0.03079500595926, 0, 6, 1.984506688047, -0.01244537211399, -0.01245284098406, 1.013254116368, 1.514561374824, -1.008489204059, -1.583439725603, 17.43256544778, 17.42837164958, 17.39427456483, 17.39263340295, 3.573273261443, 99.82724877779, 100, 99.86250733612, 114.8498468348, 130.7759967161, 115.3837917275, 115.2533681467, 113.2828825286, 114.465695537, 112.4924369656, 115.3837917275, -32.16130557021, -31.86449706736, -32.4074639768, -32.17222733449, -31.90836795426, -66.22479422585, -76.23909417912, -65.28095662524, -65.60425495743, -64.36233040093, -66.85733050464, -65.61948320323, -65.28095662524, 44.67410112412, 44.25898297037, 44.58766168014, 44.64868142721, 44.58806204619, 44.6493642655
1.2, 0.03544840720189, 0, 6, 1.981027522061, 0.002382999296533, 0.002384424398861, 1.029715771596, 1.526220776354, -0.994121735354, -1.57738937766, 17.80266772529, 17.79851828415, 17.76473574843, 17.76310592927, 3.811695735062, 99.82853114361, 100, 99.86361336933, 115.4369171273, 131.3673309449, 115.9865619447, 115.8401053178, 113.8690889508, 115.0529862119, 113.0791871904, 115.9865619447, -32.13645644422, -31.82785844354, -32.38305218696, -32.13603805341, -31.88187242652, -66.59354379515, -76.601013646, -65.62195393103, -65.9728885295, -64.7318189724, -67.22630777927, -65.98931149572, -65.62195393103, 44.65565355017, 44.24060529986, 44.5694544199, 44.6303681114, 44.56960649006, 44.63082665293
1.225, 0.03988992518677, 0, 6, 1.978741658395, 0.01769637842597, 0.01770693695024, 1.045591679458, 1.537891431125, -0.9784860120261, -1.570225373737, 18.17275577534, 18.16865680149, 18.13521125211, 18.13360186066, 4.03986306664, 99.82991696567, 100, 99.86487499004, 116.0241319821, 131.9592266019, 116.5893437895, 116.426965282, 114.4553682672, 115.6404492359, 113.6660620672, 116.5893437895, -32.10923429681, -31.7894182857, -32.35616860787, -32.09775195551, -31.8531601522, -66.96206495751, -76.96204944283, -65.96295781472, -66.34128113853, -65.10115071538, -67.59507858567, -66.35901531045, -65.96295781472, 44.63726089539, 44.22225859669, 44.55124145342, 44.61212884373, 44.5511324543, 44.61234876567
1.25, 0.0442190565416, 0, 6, 1.978083178322, 0.03338888119581, 0.03340878937263, 1.060821825312, 1.549004644567, -0.9614686111724, -1.561489198594, 18.54283052949, 18.53878786715, 18.50570614867, 18.5041205367, 4.257739180107, 99.83134490519, 100, 99.86625810194, 116.6115021938, 132.5516792098, 117.19213596, 117.0139623919, 115.0417365031, 116.2280967355, 114.253075267, 117.19213596, -32.07973879249, -31.74937720827, -32.32670694542, -32.05763614944, -31.82254181554, -67.33033559452, -77.3222073881, -66.30396753987, -66.70941229532, -65.47030119259, -67.96362084985, -66.72856906907, -66.30396753987, 44.61891201674, 44.20392299602, 44.53300271942, 44.59394206313, 44.53262148654, 44.59391101875
1.275, 0.0484815975551, 0, 6, 1.979106196266, 0.04939228873846, 0.049421769463, 1.075425520348, 1.559300894087, -0.9430791865274, -1.55100764812, 18.91289315755, 18.90891232144, 18.87622631613, 18.87466140704, 4.465270568182, 99.8328508032, 100, 99.86781254843, 117.1990405788, 133.1446850711, 117.7949393432, 117.6011109872, 115.6282095671, 116.8159411962, 114.8402405653, 117.7949393432, -32.04806111781, -31.70784317291, -32.29464356903, -32.0158682193, -31.79023056162, -67.69833512016, -77.68149174626, -66.6449836082, -67.07726217481, -65.83924687762, -68.33191309778, -67.09794805814, -66.6449836082, 44.60058602477, 44.18557652223, 44.51471982222, 44.57577730746, 44.51405541301, 44.57548384326
1.3, 0.05262224948726, 0, 6, 1.981622269746, 0.06570090519261, 0.06574021985395, 1.089657525801, 1.568868405457, -0.9236901958606, -1.538892014403, 19.28294490693, 19.27903113996, 19.24676853418, 19.24522449028, 4.662313389561, 99.83443269422, 100, 99.8695319839, 117.7867616774, 133.738245381, 118.3977563766, 118.1884255501, 116.2148032094, 117.4039960961, 115.4275722538, 118.3977563766, -32.0142659688, -31.66484405539, -32.26005107601, -31.97244604245, -31.75629211284, -68.06604352008, -78.03989917817, -66.98600739871, -67.44481116214, -66.20796542374, -68.69993417061, -67.46712889498, -66.98600739871, 44.5822561461, 44.16719619092, 44.49637900292, 44.55760466636, 44.49541953181, 44.55703667531
1.325, 0.0566774930834, 0, 6, 1.985269392822, 0.08234686134604, 0.08239631840523, 1.104106902289, 1.578024299149, -0.9037620481044, -1.525435461405, 19.65298718426, 19.64914538505, 19.6173315742, 19.61580993959, 4.848821111513, 99.83608652768, 100, 99.87138280542, 118.3746806258, 134.3323604053, 119.0005903849, 118.7759205076, 116.8015331346, 117.9922752302, 116.0150846562, 119.0005903849, -31.97842046594, -31.62043086807, -32.22309206096, -31.92753339541, -31.72070079722, -68.4334417962, -78.39742759927, -67.32704079221, -67.81204108515, -66.57643532458, -69.06766340161, -67.83608887362, -67.32704079221, 44.56389584653, 44.14876274552, 44.47798399302, 44.53939905132, 44.47671606743, 44.5385435038
1.35, 0.06065843371734, 0, 6, 1.989458252805, 0.09937165321603, 0.09943158753494, 1.119396657567, 1.587156738478, -0.8838603509595, -1.510995399349, 20.02302143334, 20.0192561076, 19.98791546377, 19.98641794512, 5.024924701275, 99.83782028272, 100, 99.87333817274, 118.9628136396, 134.9270301077, 119.6034460368, 119.3636102756, 117.3884149298, 118.5807925961, 116.6027920865, 119.6034460368, -31.94059160708, -31.57460248805, -32.1839595228, -31.88127570233, -31.6833915088, -68.80051217843, -78.75407534189, -67.66808642985, -68.1789344934, -66.94463566623, -69.43508072323, -68.20480585981, -67.66808642985, 44.54548504352, 44.13026794886, 44.45955266805, 44.52114044586, 44.4579626042, 44.51998393992
1.375, 0.06457366201797, 0, 6, 1.993411774545, 0.1167932216158, 0.1168639438724, 1.135907119084, 1.596639352045, -0.8643819956945, -1.495981340798, 20.39304902887, 20.38936432667, 20.35852047117, 20.35704869746, 5.190626025611, 99.83963856375, 100, 99.87537178229, 119.5511777758, 135.5222540063, 120.2063291743, 119.9515091041, 117.975464024, 119.1695616822, 117.190708728, 120.2063291743, -31.9008475768, -31.52736295291, -32.14284508733, -31.83377924759, -31.64429804301, -69.16723814711, -79.10984145729, -68.00914761651, -68.54547398576, -67.3125459678, -69.80216675153, -68.57325817256, -68.00914761651, 44.52701228776, 44.11171596877, 44.44110569168, 44.50281358502, 44.43918053171, 44.50134311994
1.4, 0.06844635898179, 0, 6, 1.996338329571, 0.1346119396995, 0.1346936914664, 1.153773249797, 1.60697699453, -0.8455163922582, -1.481001537456, 20.76307121317, 20.75947104715, 20.7291467404, 20.72770232717, 5.345951146608, 99.84154097683, 100, 99.87744768302, 120.1397898199, 136.1180299002, 120.8092456892, 120.5396308522, 118.5626959978, 119.7585950409, 117.7788487423, 120.8092456892, -31.85926482927, -31.47875276398, -32.10000399485, -31.78513870983, -31.60331825711, -69.53360377934, -79.46472769467, -68.3502276854, -68.9116421648, -67.68014616424, -70.16890261372, -68.94142437355, -68.3502276854, 44.50847517268, 44.09312030664, 44.42266305951, 44.48441628898, 44.42039093132, 44.48261839322
1.425, 0.07226149385477, 0, 6, 1.997716172502, 0.15282441914, 0.1529173598818, 1.172980648151, 1.61871517189, -0.8273069809296, -1.466609214431, 21.13308905858, 21.12957725032, 21.09979402825, 21.09837874182, 5.491000835931, 99.84353234813, 100, 99.87954007901, 120.7286645451, 136.7143516339, 121.4121997696, 121.12798878, 119.1501267772, 120.3479039475, 118.3672262252, 121.4121997696, -31.81594062486, -31.42884905121, -32.05575172659, -31.73544788549, -31.56033915053, -69.89959273316, -79.81874214967, -68.6913290057, -69.27742183512, -68.04741626104, -70.53526972798, -69.30928281848, -68.6913290057, 44.48988201135, 44.07449975996, 44.40424368699, 44.46596535066, 44.4016138018, 44.46382619424
1.45, 0.07594328477778, 0, 6, 1.997405495179, 0.1714046402589, 0.1715088482594, 1.193411011528, 1.632153635267, -0.8097261057833, -1.453113822242, 21.50310346235, 21.4996837528, 21.47046165536, 21.46907733662, 5.625942643176, 99.84561220719, 100, 99.88162973003, 121.3178139784, 137.3112095523, 122.0151816789, 121.716595427, 119.737772022, 120.9374984481, 118.9558545985, 122.0151816789, -31.7709898781, -31.37774839381, -32.0103447567, -31.68479777435, -31.51536843167, -70.26518800732, -80.17189861057, -69.03244498427, -69.64279612919, -68.41433609276, -70.90124980464, -69.67681160766, -69.03244498427, 44.47125148074, 44.05587581595, 44.38586537814, 44.44748841525, 44.38286814938, 44.44499531168
1.475, 0.07946154294149, 0, 6, 1.995537249466, 0.1902830705533, 0.1903985396386, 1.214665259978, 1.647240077134, -0.7927151435495, -1.440448511559, 21.87311495479, 21.86979105247, 21.84114879007, 21.83979711017, 5.75094615745, 99.8477744095, 100, 99.88370731381, 121.9072479701, 137.9085938843, 122.6181903678, 122.3054622454, 120.3256463154, 121.5273878501, 119.5447461554, 122.6181903678, -31.72452576232, -31.32511239531, -31.96391501452, -31.63305364991, -31.46845131386, -70.63037245151, -80.52421103417, -69.37355819587, -70.00774826966, -68.78088572934, -71.26682511377, -70.04398924879, -69.37355819587, 44.45260934692, 44.03727161052, 44.36754348855, 44.42901463473, 44.36417215261, 44.4261572193
1.5, 0.08274359903456, 0, 6, 1.992415044261, 0.2093412049336, 0.2094678417228, 1.236256568803, 1.663650116084, -0.7759989977534, -1.428403137569, 22.24312423668, 22.23989948541, 22.21185423342, 22.21053688125, 5.866219928939, 99.85000581445, 100, 99.88578575355, 122.4969745677, 138.5064934773, 123.2212625075, 122.8946001832, 120.9137633154, 122.1175796113, 120.1339120158, 123.2212625075, -31.67666627042, -31.27150545534, -31.9165014943, -31.58043348288, -31.4197849294, -70.99512948955, -80.87569560251, -69.71469315726, -70.37226195978, -69.14704572804, -71.63197871968, -70.41079475737, -69.71469315726, 44.43398289161, 44.01870832507, 44.34927806586, 44.41056924325, 44.34552920332, 44.40733976617
1.525, 0.08576036143265, 0, 6, 1.988583562135, 0.2284456739372, 0.2285833364533, 1.257451771748, 1.680939425016, -0.7590548032404, -1.416684230346, 22.61313173461, 22.61000938969, 22.5825766094, 22.5812952513, 5.972070355258, 99.85228232276, 100, 99.88787782145, 123.0869993179, 139.1048939159, 123.8243912102, 123.4840187199, 121.5021358516, 122.7080793658, 120.7233620728, 123.8243912102, -31.62754284643, -31.21708628631, -31.86811224812, -31.52694753137, -31.36962841201, -71.35944309979, -81.22637361977, -70.0558584682, -70.73632164875, -69.51279743689, -71.99669494286, -70.77720778732, -70.0558584682, 44.41539397088, 44.00019687015, 44.33105230993, 44.39217251044, 44.32692363971, 44.38856578192
1.55, 0.08850959099426, 0, 6, 1.984810266311, 0.2474801691406, 0.2476287363777, 1.277742901371, 1.698671521132, -0.7415019732245, -1.404989981756, 22.98313796148, 22.98012112571, 22.95331442775, 22.95207067384, 6.068772360641, 99.85458171639, 100, 99.88999280339, 123.6773253402, 139.7037782259, 124.4275679134, 124.0737262582, 122.0907758511, 123.298891678, 121.3131050545, 124.4275679134, -31.57729570112, -31.16204865346, -31.81876596779, -31.47267525713, -31.31825020371, -71.72329775183, -81.57627037469, -70.39706178813, -71.09991352623, -69.87812328689, -72.36095921638, -71.14320894516, -70.39706178813, 44.39685593552, 43.98173517298, 44.31284473409, 44.37384047168, 44.30833465256, 44.36985338579
1.575, 0.09094889011675, 0, 6, 1.981934003476, 0.2663380771389, 0.2664975020133, 1.296866268806, 1.716314689575, -0.7232025867464, -1.392767345468, 23.35314353199, 23.35023505331, 23.32406630294, 23.32286157967, 6.156591535823, 99.85689159188, 100, 99.89215359598, 124.2679543782, 140.3031293466, 125.0307833706, 124.6637303062, 122.6796939744, 123.8900207158, 121.9031484457, 125.0307833706, -31.52606025796, -31.10656034004, -31.76844177552, -31.41771835308, -31.26595165846, -72.0866788678, -81.92541125911, -70.73831039601, -71.46302551837, -70.2430069292, -72.72475812338, -71.50878018016, -70.73831039601, 44.37837343152, 43.96331101946, 44.29463403762, 44.35557901213, 44.28974193798, 44.35121065545
1.6, 0.09308479032552, 0, 6, 1.980559012681, 0.2849200709083, 0.2850903821109, 1.314719699695, 1.733209435286, -0.7041927337019, -1.379472358427, 23.72314914343, 23.72035146106, 23.69483125334, 23.6936665729, 6.23571825197, 99.85919467466, 100, 99.89437540662, 124.8588888114, 140.90293415, 125.6340295802, 125.2540376648, 123.2688990482, 124.4814708429, 122.4934983312, 125.6340295802, -31.47394468092, -31.05074010318, -31.71703086485, -31.36216858152, -31.21307233798, -72.44957377264, -82.27381524918, -71.07961228048, -71.82564696343, -70.6074336251, -73.08807958384, -71.8739054705, -71.07961228048, 44.35994066307, 43.94490646639, 44.27640005936, 44.33737430284, 44.2711267602, 44.33262481948
1.625, 0.09497031297756, 0, 6, 1.980881204316, 0.3031530242906, 0.303334293445, 1.331314391453, 1.748871182429, -0.6845887200271, -1.364870078452, 24.09315554134, 24.09047053264, 24.06560881124, 24.06448474125, 6.30624605873, 99.86147863489, 100, 99.89666546865, 125.4501328001, 141.5031845301, 126.237303755, 125.8446545423, 123.8583984362, 125.0732467351, 123.0841601105, 126.237303755, -31.42102423678, -30.99465737234, -31.66444455972, -31.30610130269, -31.15985998838, -72.81197207149, -82.62149303928, -71.42097843635, -72.18776838057, -70.97139068417, -73.45091286427, -72.23857122185, -71.42097843635, 44.34154100206, 43.92650094381, 44.25812444936, 44.31919896896, 44.25247169492, 44.31406884099
1.65, 0.09667545589698, 0, 6, 1.982781301388, 0.3210078467098, 0.3212001608981, 1.346793456014, 1.763222970229, -0.6645213479857, -1.349058607564, 24.46316352671, 24.46059229523, 24.43639888963, 24.43531569624, 6.368205918889, 99.86373311367, 100, 99.89901936756, 126.041691846, 142.1038756327, 126.8406082102, 126.4355866229, 124.4481986366, 125.6653531228, 123.6751390228, 126.8406082102, -31.36735190414, -30.9383761766, -31.61069137251, -31.24960502569, -31.10641592789, -73.17386516574, -82.96844997398, -71.76243199788, -72.54938135619, -71.33486733175, -73.81324839822, -72.60276593343, -71.76243199788, 44.32314994592, 43.90807234291, 44.23979040986, 44.30102191926, 44.23376010431, 44.29551172208
1.675, 0.09834649327852, 0, 6, 1.98596525369, 0.3385206726578, 0.3387241311127, 1.361657998764, 1.776346627281, -0.6442916426865, -1.332329975974, 24.83317393445, 24.83071853614, 24.80720163142, 24.80615944318, 6.421583629436, 99.86596222557, 100, 99.90141917531, 126.6335721926, 142.7050046781, 127.443867603, 127.0268393476, 125.0383057016, 126.2577951855, 124.2664403378, 127.443867603, -31.31296629681, -30.88196794114, -31.55586392472, -31.19283033474, -31.05271315103, -73.53524525261, -83.31468789988, -72.10392385664, -72.91047860526, -71.69785410053, -74.1750772025, -72.96647945649, -72.10392385664, 44.30474030949, 43.88959938742, 44.2213935517, 44.28281602932, 44.21498689704, 44.27692554616
1.7, 0.09998709237948, 0, 6, 1.989919424802, 0.3557835602348, 0.3559982471179, 1.376596019684, 1.788705520196, -0.6244756685664, -1.31503730441, 25.2031876712, 25.20084920766, 25.17801743293, 25.17701624895, 6.466324210308, 99.86818225741, 100, 99.90384486958, 127.225781536, 143.3065700944, 128.0470934419, 127.6184184307, 125.6287256865, 126.8505790637, 124.858069672, 128.0470934419, -31.25789895547, -30.82538916972, -31.50011559916, -31.13588408693, -30.99864868989, -73.89610516857, -83.66020690966, -72.44543547942, -73.27105360301, -72.06034207305, -74.53639058033, -73.32970224741, -72.44543547942, 44.28628936002, 43.87106966859, 44.20294909653, 44.26455997734, 44.19616696508, 44.25828815732
1.725, 0.1015914613608, 0, 6, 1.993905199646, 0.3728901085102, 0.3731160208493, 1.392122963041, 1.800706052582, -0.6055181922864, -1.297517575086, 25.57320558211, 25.57098481367, 25.54884677338, 25.54788648567, 6.502469734692, 99.87040863311, 100, 99.90628077807, 127.8183289836, 143.9085713539, 128.6502988096, 128.2103296989, 126.2194645662, 127.4437109036, 125.4500327559, 128.6502988096, -31.20217579527, -30.76858243819, -31.44358967525, -31.07883357831, -30.94410725911, -74.25643868156, -84.00500558279, -72.7869492288, -73.63109967241, -72.42232266064, -74.89718025467, -73.69242520281, -72.7869492288, 44.26778275467, 43.85248368824, 44.18447860848, 44.24623688259, 44.17732156241, 44.23958230286
1.75, 0.1032056662263, 0, 6, 1.997079674763, 0.3899060552232, 0.390143029994, 1.408484697827, 1.812781602824, -0.5876306792051, -1.280340733193, 25.94322843649, 25.94112595103, 25.91969000889, 25.9187705173, 6.530121408377, 99.87264840527, 100, 99.90870034765, 128.411224076, 144.5110063423, 129.253497596, 128.8025788671, 126.810528543, 128.0371961561, 126.0423353763, 129.253497596, -31.14583173514, -30.711522639, -31.38645744736, -31.02172651678, -30.88896280906, -74.61624043654, -84.34908527946, -73.12844792805, -73.99061001745, -72.78378747141, -75.25743843711, -74.05463929614, -73.12844792805, 44.24921479199, 43.83385268311, 44.16600311187, 44.22783783938, 44.15847202246, 44.22079868692
1.775, 0.1048345451524, 0, 6, 1.998777207012, 0.406856867893, 0.407104566034, 1.425724335124, 1.825512763154, -0.570875012438, -1.264152574381, 26.31325695708, 26.31127333109, 26.29054706678, 26.28966851398, 6.549493337856, 99.87491373135, 100, 99.91108077711, 129.0044748558, 145.1138671737, 129.8567027018, 129.3951713436, 127.4019247595, 128.6310389703, 126.6349836521, 129.8567027018, -31.0889345418, -30.65423913339, -31.32899935591, -30.96462296871, -30.83304752849, -74.97550518384, -84.69245706554, -73.46991384311, -74.34957810065, -73.1447279896, -75.61715762374, -74.41633492323, -73.46991384311, 44.23058988392, 43.81519443916, 44.14754224125, 44.2093730942, 44.13963892068, 44.20194837777
1.8, 0.1064187807474, 0, 6, 1.998728841471, 0.423716744505, 0.4239746949682, 1.443748569839, 1.839350271214, -0.5552506014345, -1.24930750216, 26.68329185291, 26.68142773301, 26.66141728546, 26.66058013776, 6.560940244325, 99.87721670378, 100, 99.91341116404, 129.5980864953, 145.7171388404, 130.4599247427, 129.9881121145, 127.9936610493, 129.2252420092, 127.2279833925, 130.4599247427, -31.03159232211, -30.59681536543, -31.2715051274, -30.90760283162, -30.77628118199, -75.33422718831, -85.03514413254, -73.81132794878, -74.70799788514, -73.5051350972, -75.97633051313, -74.77750139991, -73.81132794878, 44.21192360172, 43.79652992904, 44.12911410988, 44.19086803606, 44.12084189923, 44.18305819648
1.825, 0.1078576974655, 0, 6, 1.997009658357, 0.4404143546347, 0.4406820094005, 1.462336312961, 1.854410947289, -0.540729488715, -1.235818896945, 27.05333378686, 27.05158985337, 27.03229955424, 27.03150447976, 6.564907632939, 99.87956167734, 100, 99.91568684533, 130.1920616078, 146.3208018103, 131.0632412989, 130.5814056322, 128.5857451218, 129.8198067227, 127.8213395409, 131.0632412989, -30.97393800402, -30.53934752745, -31.21417311096, -30.85073255394, -30.71873126015, -75.6924004324, -85.37717754261, -74.15272366185, -75.0658638583, -73.86499926067, -76.33495017527, -75.13812741512, -74.15272366185, 44.19324018485, 43.77788187954, 44.11073528223, 44.17235287548, 44.10209913429, 44.16416051421
1.85, 0.1090258799262, 0, 6, 1.993900750924, 0.4568455652198, 0.4571223419907, 1.480995218055, 1.87048523515, -0.5271206227007, -1.223467927407, 27.42338331318, 27.42176026086, 27.40319250622, 27.40244024909, 6.561881715071, 99.88194464492, 100, 99.91791921465, 130.7864009375, 146.9248345548, 131.666647711, 131.1750555221, 129.1781839366, 130.4147332026, 128.4150559249, 131.666647711, -30.91611372307, -30.48191366411, -31.15709419847, -30.79402284992, -30.66058954606, -76.05001930201, -85.71859199523, -74.49412027023, -75.4231709354, -74.22431123214, -76.69301052968, -75.49820192912, -74.49412027023, 44.17456753528, 43.75927253934, 44.09241338624, 44.15385529977, 44.08341942824, 44.14528593092
1.875, 0.1098858958391, 0, 6, 1.989882327925, 0.4728743255744, 0.4731596595259, 1.499035019729, 1.887144152869, -0.5139718189092, -1.211946618068, 27.79344086635, 27.79193946081, 27.77409459219, 27.77338593113, 6.552296198273, 99.88434973977, 100, 99.92012669676, 131.3811030252, 147.5292139582, 132.2701281819, 131.7690641622, 129.7709833724, 131.0100197917, 129.0091350315, 132.2701281819, -30.85826633007, -30.42460652477, -31.10029544938, -30.73743724238, -30.60212631794, -76.40707908381, -86.05942503916, -74.83552167944, -75.77991472881, -74.58306280142, -77.05050686359, -75.85771492154, -74.83552167944, 44.15593052696, 43.74071712607, 44.07413791958, 44.13539758358, 44.06479452086, 44.12645971664
1.9, 0.1104503381187, 0, 6, 1.985648844906, 0.4883587576457, 0.4886521822515, 1.515864744139, 1.903918135854, -0.5008379181376, -1.200938770096, 28.16350683456, 28.16212788739, 28.1450042189, 28.14433993669, 6.536523546796, 99.88675721927, 100, 99.92232392578, 131.9761640912, 148.1339172356, 132.8736735511, 132.3634327257, 130.364147995, 131.6056637256, 129.6035780518, 132.8736735511, -30.80053547212, -30.36754723688, -31.04379215736, -30.68097105003, -30.54362485162, -76.76357571343, -86.39971376338, -75.17693522337, -76.13609218204, -74.94124725771, -77.40743574065, -76.21665793296, -75.17693522337, 44.13734625148, 43.72221876807, 44.05588897876, 44.11699754058, 44.04620586571, 44.10770159226
1.925, 0.1106943618226, 0, 6, 1.982012116563, 0.5031972798643, 0.5034985134582, 1.531142014696, 1.920354028231, -0.4874710137679, -1.189960914422, 28.53358160883, 28.53232584131, 28.51591995643, 28.51530076562, 6.514894321642, 99.889153685, 100, 99.92453155992, 132.5715789481, 148.7389249731, 133.4772737284, 132.9581614566, 130.9576807601, 132.2016620188, 130.1983849582, 133.4772737284, -30.74303656581, -30.31092105902, -30.98757117207, -30.62472618755, -30.48536574572, -77.11950557527, -86.73948969832, -75.51836771757, -76.49170165867, -75.29885955196, -77.76379476121, -76.57502445577, -75.51836771757, 44.11882285289, 43.70376928792, 44.03764563946, 44.0986661611, 44.02763285656, 44.08902261237
1.95, 0.1106217482314, 0, 6, 1.979662520798, 0.5173288037091, 0.5176377632514, 1.544747032689, 1.935872109129, -0.4737962125296, -1.178448536415, 28.90366551523, 28.90253342167, 28.88684084648, 28.88626718686, 6.487612477018, 99.89152580178, 100, 99.92677082106, 133.1673426277, 149.3442242701, 134.0809192191, 133.5532497892, 131.55158247, 132.7980121567, 130.7935544454, 134.0809192191, -30.6858428563, -30.25483959987, -30.9315156494, -30.56877472155, -30.4276347737, -77.47486618744, -87.07877351378, -75.85982632085, -76.84674267045, -75.65589646233, -78.11958269786, -76.93281046831, -75.85982632085, 44.10035851493, 43.68535298855, 44.01938801944, 44.08039764629, 44.00905571926, 44.07041706728
1.975, 0.1103038705695, 0, 6, 1.978941588224, 0.5307078741434, 0.5310245934772, 1.556683761723, 1.949911265377, -0.4598629622451, -1.166083949486, 29.27375880489, 29.27275055445, 29.25776655472, 29.25723847756, 6.454729927698, 99.89385965971, 100, 99.92905240966, 133.7634517558, 149.9498099691, 134.6846024986, 134.1486965068, 132.1458519276, 133.394712339, 131.3890843673, 134.6846024986, -30.62897862691, -30.19935027282, -30.87546410644, -30.51315856858, -30.37064770574, -77.82965698207, -87.41757279238, -76.20131931232, -77.20121562554, -76.01235692331, -78.4747995573, -77.29001478645, -76.20131931232, 44.08194051906, 43.66695028108, 44.00109722418, 44.06216964916, 43.99045632406, 44.05186278576
2, 0.1098464910028, 0, 6, 1.979840427344, 0.5433191422423, 0.5436436830178, 1.567062379804, 1.962192436302, -0.4457762374918, -1.152882703645, 29.64386169222, 29.64297715141, 29.62869726269, 29.62821450784, 6.416191683019, 99.89614819071, 100, 99.93138048498, 134.359904672, 150.5556823127, 135.28827625, 134.7444999395, 132.7404868075, 133.9917612637, 131.9849724095, 135.28827625, -30.57243362856, -30.14446577669, -30.81931732339, -30.4579117987, -30.31448286788, -78.18387910906, -87.75588588977, -76.54282585652, -77.55512171337, -76.36824185571, -78.82944637059, -77.64663856899, -76.54282585652, 44.06354703985, 43.64853951387, 43.98275565305, 44.04395277109, 43.97181788977, 44.0333299108
2.025, 0.1093812284728, 0, 6, 1.982134020479, 0.5552006873315, 0.5555330949667, 1.576250391533, 1.972783086556, -0.4317252170316, -1.139095111888, 30.01397444664, 30.01321321142, 29.99963344038, 29.99919559782, 6.371898628813, 99.89839124569, 100, 99.93374556547, 134.95670085, 151.161843752, 135.8919456215, 135.3406582919, 133.3354844655, 134.5891580538, 132.5812165218, 135.8919456215, -30.51618275458, -30.0902191131, -30.76307179903, -30.40311922746, -30.25908234267, -78.53753460957, -88.09370734209, -76.88433182906, -77.90846294807, -76.72355343384, -79.18352472364, -78.00268430889, -76.88433182906, 44.0451514482, 43.63009857912, 43.96435233516, 44.02571859594, 43.95312942549, 44.01478939184
2.05, 0.1089745678928, 0, 6, 1.985417919235, 0.5664671791515, 0.5668074579317, 1.584915580633, 1.98203287413, -0.4181162113823, -1.125046401441, 30.38409740295, 30.38345877619, 30.37057578319, 30.37018234693, 6.321767128361, 99.90059948145, 100, 99.9361276694, 135.5538411244, 151.7682982504, 136.4956337541, 135.9371701131, 133.9308423692, 135.1869028081, 133.1778151684, 136.4956337541, -30.46019209865, -30.0365679026, -30.70678920172, -30.34885946183, -30.20429290431, -78.89062563875, -88.43102912454, -77.22584841511, -78.26124197349, -77.0782942514, -79.53703618778, -78.35815496058, -77.22584841511, 44.02672856177, 43.61161042718, 43.94589445131, 44.00744382563, 43.9343956101, 43.99621693701
2.075, 0.1086289662559, 0, 6, 1.989068918786, 0.5772844474372, 0.5776325018199, 1.593722623691, 1.99041730195, -0.4053977982927, -1.111030589557, 30.75423089275, 30.75371391718, 30.7415251291, 30.74117548599, 6.265742742694, 99.90278974949, 100, 99.93850982892, 136.1513280984, 152.3750503941, 137.0993436398, 136.5340344427, 134.5265583563, 135.7849963321, 133.7747673094, 137.0993436398, -30.40442565391, -29.98339601111, -30.65055056253, -30.29515686847, -30.14993482998, -79.24315457622, -88.76784227478, -77.56737730725, -78.61346127455, -77.43246679506, -79.88998224421, -78.71305337443, -77.56737730725, 44.00826009981, 43.59306930951, 43.92740160749, 43.98911051923, 43.91563405565, 43.97759272062
