Time,Alpha_L1,Alpha_L2,Alpha_R1,Alpha_R2,AVz,Ay,Bk_Stat,Fx_L1,Fx_L2,Fx_R1,Fx_R2,Fy_L1,Fy_L2,Fy_R1,Fy_R2,Fz_L1,Fz_L2,Fz_R1,Fz_R2,GearStat,Lat_Targ,Lat_Veh,Pitch,PitchGL1,PitchGL2,PitchGR1,PitchGR2,PitchO1,Roll,RollGL1,RollGL2,RollGR1,RollGR2,RollO_1,Roll_E,Roll_L1,Roll_L2,Roll_R1,Roll_R2,Rot_L1,Rot_L2,Rot_R1,Rot_R2,Station,Steer_L1,Steer_R1,Steer_SW,VisO_1,Vx,VxTarget,Vxz_Fwd,Xctc_L1,Xctc_L2,Xctc_R1,Xctc_R2,Xo,X_L1,X_L2,X_Obj_1,X_R1,X_R2,Yaw,YawO_1,Yaw_L1,Yaw_L2,Yaw_R1,Yaw_R2,Yctc_L1,Yctc_L2,Yctc_R1,Yctc_R2,Yo,Y_L1,Y_L2,Y_Obj_1,Y_R1,Y_R2,Zgnd_L1,Zgnd_L2,Zgnd_R1,Zgnd_R2,Zo,Z_L1,Z_L2,Z_Obj_1,Z_R1,Z_R2
0, 8.36383362954e-18, -0, -8.36383362954e-18, -0, 0, 2.432902185872e-20, 0, -2.629323907209e-11, 0, -2.629323907209e-11, 0, -3.29522231126e-19, -0, 3.29522231126e-19, -0, 4705.658697437, 2654.825674813, 4705.658697437, 2654.825674813, 6, 0, 0, 0.1506696057217, -0, -0, -0, -0, -0, 0, 0, 0, 0, 0, 0, 0, 3.180543684351e-15, 0, -3.180543684351e-15, 0, 0.0004185266825604, 0.0004185266825604, 0.0004185266825604, 0.0004185266825604, 0, 0, 0, 0, 1, 120, 120, 120, 0.0008546452433101, -2.909135293117, 0.0008546452433101, -2.909135293117, 0, 0.0008546452433101, -2.909135293117, 16.66666666667, 0.0008546452433101, -2.909135293117, 0, 0, -3.195270793007e-15, 0, 3.195270793007e-15, 0, 0.8375, 0.8375, -0.8375, -0.8375, 0, 0.8375, 0.8375, 0, -0.8375, -0.8375, -0, -0, -0, -0, -0.00855730425281, 0.3164415720245, 0.3240939340492, 0, 0.3164415720245, 0.3240939340492
0.025, -0.0004739076713231, 0.0003516402087003, 0.0004739076713229, -0.0003516402086886, 4.229005772451e-15, -3.877950319699e-16, 0, -29.30964393442, -14.58534914665, -29.30964393442, -14.58534914665, 0.378942677142, -0.2124710698134, -0.3789426771416, 0.2124710698073, 4687.875922975, 2659.398280475, 4687.875922975, 2659.398280475, 6, 0, -8.721964415795e-19, 0.1479306698059, -0, -0, -0, -0, -0, -6.260270156222e-17, 0, 0, 0, 0, 0, -6.260291022043e-17, -0.0005088177714873, 0.0003660162279761, 0.0005088177714872, -0.0003660162279765, 0.4083855560449, 0.4083983879362, 0.4083855560449, 0.4083983879362, 0.8332540316203, 0.0002919159484006, -0.0002919159484006, -5.41817328121e-16, 1, 119.9694695654, 120, 119.9690474681, 0.8340904563374, -2.075898176878, 0.8340904563374, -2.075898176878, 0.8332540316203, 0.834090456323, -2.075898176884, 17.49562173553, 0.834090456323, -2.075898176884, 3.425043764304e-17, 0, 0.0002932306293212, -0.0001586793972846, -0.0002932306293211, 0.0001586793972719, 0.8374983368451, 0.8375019144769, -0.8374983368451, -0.8375019144769, -8.721964415795e-19, 0.8375011476081, 0.8374998442128, 0, -0.8375011476081, -0.8374998442128, -0, -0, -0, -0, -0.008449549613876, 0.3165079256481, 0.3240768720812, 0, 0.3165079256481, 0.3240768720812
0.05, -0.001378661958522, 0.0008357002877862, 0.001378661958522, -0.0008357002877761, 1.063231765473e-14, -3.284731757241e-16, 0, -38.36455937239, -14.7300434122, -38.36455937239, -14.7300434122, 1.327484072756, -0.5771376675974, -1.327484072757, 0.577137667593, 4637.892409234, 2669.243276014, 4637.892409234, 2669.243276014, 6, 0, -2.784044694083e-18, 0.1409656876923, -0, -0, -0, -0, -0, -2.661335813409e-16, 0, 0, 0, 0, 0, -2.661343868164e-16, -0.001753775250016, 0.001113829903211, 0.001753775250015, -0.001113829903212, 0.8162146368403, 0.8162562329245, 0.8162146368403, 0.8162562329245, 1.666326006282, 0.0009680337621421, -0.0009680337621421, -3.799812475577e-15, 1, 119.9372179434, 120, 119.9365444869, 1.667121056619, -1.242865612334, 1.667121056619, -1.242865612334, 1.666326006282, 1.667121056454, -1.242865612387, 18.32417940724, 1.667121056454, -1.242865612387, 2.20319004375e-16, 0, 0.000972351540909, -0.000481937537491, -0.0009723515409085, 0.0004819375374787, 0.8374942511621, 0.8375058268819, -0.8374942511621, -0.8375058268819, -2.784044694083e-18, 0.8375039449102, 0.8374995275419, 0, -0.8375039449102, -0.8374995275419, -0, -0, -0, -0, -0.008161673782644, 0.3166944311605, 0.3240401369686, 0, 0.3166944311605, 0.3240401369686
0.075, -0.002943234031681, 0.001312230733489, 0.002943234031667, -0.00131223073348, 1.481885128021e-14, -2.7233150877e-16, 0, -47.48141162273, -14.36853537731, -47.48141162276, -14.36853537731, 3.156328186291, -1.033022900429, -3.156328186291, 1.033022900425, 4583.733026238, 2672.196431023, 4583.733026238, 2672.196431023, 6, 0, -4.569122301142e-18, 0.1321699167232, -0, -0, -0, -0, -0, -5.458769055528e-16, 0, 0, 0, 0, 0, -5.458783579509e-16, -0.004124130996496, 0.002166094005221, 0.004124130996494, -0.002166094005223, 1.223900747223, 1.224006968088, 1.223900747223, 1.224006968088, 2.499186470405, 0.002255035308169, -0.002255035308156, -9.75233718015e-15, 1, 119.9038555627, 120, 119.9031592328, 2.499928486516, -0.4100546811259, 2.499928486516, -0.4100546811259, 2.499186470405, 2.499928485615, -0.410054681326, 19.15240303052, 2.499928485615, -0.410054681326, 5.505686141306e-16, 0, 0.002264554871242, -0.0009357695698263, -0.002264554871229, 0.0009357695698146, 0.8374863982642, 0.8375113311832, -0.8374863982642, -0.8375113311832, -4.569122301142e-18, 0.8375092083693, 0.8374990811094, 0, -0.8375092083693, -0.8374990811094, -0, -0, -0, -0, -0.007766871821626, 0.3168965177379, 0.3240291175631, 0, 0.3168965177379, 0.3240291175631
0.1, -0.004987747584219, 0.001426374459196, 0.004987747584217, -0.001426374459189, 1.98134834863e-14, 4.04225558359e-17, 0, -52.86766378339, -14.05130566761, -52.86766378339, -14.05130566761, 5.824357878433, -1.274661532581, -5.824357878431, 1.27466153258, 4545.592198606, 2664.190709011, 4545.592198606, 2664.190709011, 6, 0, -6.335359103157e-18, 0.123964304258, -0, -0, -0, -0, -0, -8.995303903654e-16, 0, 0, 0, 0, 0, -8.995324957659e-16, -0.007504651596731, 0.002945637805351, 0.007504651596729, -0.002945637805353, 1.631443782696, 1.631643653881, 1.631443782696, 1.631643653881, 3.331806955215, 0.004094031098962, -0.004094031098962, -1.744214827493e-14, 1, 119.8696609225, 120, 119.8691044239, 3.332498345794, 0.42251938079, 3.332498345794, 0.42251938079, 3.331806955215, 3.332498342815, 0.4225193804206, 19.98029368076, 3.332498342815, 0.4225193804206, 9.754162275639e-16, 0, 0.004110277660263, -0.00127049453648, -0.004110277660261, 0.001270494536469, 0.8374750481928, 0.8375154125674, -0.8374750481928, -0.8375154125674, -6.335359103157e-18, 0.837516574218, 0.8374987523453, 0, -0.837516574218, -0.8374987523453, 5.551115123126e-17, -0, 5.551115123126e-17, -0, -0.00735045766964, 0.3170388323603, 0.3240589894635, 0, 0.3170388323603, 0.3240589894635
0.125, -0.007202437637749, 0.001066335172736, 0.007202437637747, -0.001066335172742, 2.386518179715e-14, 1.518995623847e-16, 0, -53.8701664023, -13.89437674108, -53.8701664023, -13.89437674108, 8.983110668106, -1.111655978086, -8.983110668103, 1.111655978086, 4529.612591707, 2650.648597548, 4529.612591707, 2650.648597548, 6, 0, -4.939715328485e-18, 0.1175973108248, -0, -0, -0, -0, -0, -1.200471874174e-15, 0, 0, 0, 0, 0, -1.200474402728e-15, -0.01141212058672, 0.002911121986861, 0.01141212058672, -0.002911121986863, 2.038854770293, 2.039161169399, 2.038854770293, 2.039161169399, 4.164172273301, 0.006227220480256, -0.006227220480256, -2.780845863529e-14, 1, 119.835128552, 120, 119.8347512167, 4.164823102208, 1.254847872615, 4.164823102208, 1.254847872615, 4.164172273301, 4.164823095318, 1.254847872255, 20.80788772006, 4.164823095318, 1.254847872255, 1.533604425956e-15, 0, 0.006250656553763, -0.001253603392063, -0.00625065655376, 0.001253603392066, 0.8374617242067, 0.8375152417389, -0.8374617242067, -0.8375152417389, -4.939715328485e-18, 0.8375248835852, 0.8374987741674, 0, -0.8375248835852, -0.8374987741674, 5.551115123126e-17, -0, 5.551115123126e-17, -0, -0.006975132554804, 0.3170984541887, 0.3241095197401, 0, 0.3170984541887, 0.3241095197401
0.15, -0.009311014182734, 0.0004151449854095, 0.009311014182717, -0.0004151449854175, 2.545099086132e-14, 3.019833475151e-16, 0, -51.18977563652, -13.91143295626, -51.18977563652, -13.91143295626, 12.20587776869, -0.6156379555253, -12.20587776869, 0.6156379555264, 4531.547932144, 2640.036070344, 4531.547932144, 2640.036070344, 6, 0, -8.330396313993e-19, 0.1130218655135, -0, -0, -0, -0, -0, -1.42105471073e-15, 0, 0, 0, 0, 0, -1.421057475514e-15, -0.01531680164137, 0.00200788585514, 0.01531680164137, -0.002007885855143, 2.446148297822, 2.446558205632, 2.446148297822, 2.446558205632, 4.996282148385, 0.008367673777507, -0.008367673777495, -3.948184198381e-14, 1, 119.8007298411, 120, 119.8004784639, 4.996902763024, 2.086930156262, 4.996902763024, 2.086930156262, 4.996282148385, 4.9969027506, 2.08693015609, 21.63523749059, 4.9969027506, 2.08693015609, 2.152047703363e-15, 0, 0.008397904076406, -0.0008628910275922, -0.008397904076389, 0.0008628910275965, 0.8374482022383, 0.8375105245118, -0.8374482022383, -0.8375105245118, -8.330396313993e-19, 0.8375329697996, 0.837499164959, 0, -0.8375329697996, -0.837499164959, -0, -0, -0, -0, -0.006668084679393, 0.3170912277288, 0.3241491189415, 0, 0.3170912277288, 0.3241491189415
0.175, -0.01115478189947, -0.0002147874931289, 0.01115478189945, 0.0002147874931329, 2.401517166639e-14, 1.32631422543e-16, 0, -46.0085592505, -14.05461094769, -46.0085592505, -14.05461094771, 15.15199122474, -0.03096236434527, -15.15199122474, 0.03096236434696, 4542.871360969, 2637.313468562, 4542.871360969, 2637.313468562, 6, 0, 5.436643653511e-18, 0.109501006531, -0, -0, -0, -0, -0, -1.576680589479e-15, 0, 0, 0, 0, 0, -1.576683468902e-15, -0.01884878701049, 0.0006653382580288, 0.01884878701048, -0.0006653382580319, 2.853337729368, 2.85383649809, 2.853337729368, 2.85383649809, 5.828145299012, 0.01031146610575, -0.01031146610574, -5.129903627273e-14, 1, 119.7668193519, 120, 119.7666141478, 5.828742228259, 2.918771249868, 5.828742228259, 2.918771249868, 5.828145299012, 5.828742209423, 2.918771249849, 22.46239726398, 5.828742209423, 2.918771249849, 2.769157534737e-15, 0, 0.01034750789939, -0.0002840042599889, -0.01034750789938, 0.0002840042599817, 0.8374357974731, 0.8375034973811, -0.8374357974731, -0.8375034973811, 5.436643653511e-18, 0.8375400981508, 0.8374997331323, 0, -0.8375400981508, -0.8374997331323, -0, -0, -0, -0, -0.006427101145091, 0.317048970303, 0.3241592780805, 0, 0.317048970303, 0.3241592780805
0.2, -0.01269892353808, -0.0005889849010961, 0.01269892353808, 0.0005889849010858, 2.810851129418e-14, 4.634378953235e-16, 0, -39.58010969017, -14.25390271544, -39.58010969017, -14.25390271544, 17.64149094004, 0.4027909741667, -17.64149094004, -0.4027909741629, 4555.759853017, 2641.84906277, 4555.759853017, 2641.84906277, 6, 0, 1.393712419519e-17, 0.1062915083781, -0, -0, -0, -0, -0, -1.65229107996e-15, 0, 0, 0, 0, 0, -1.652293923171e-15, -0.02185887380959, -0.0005354420445687, 0.02185887380958, 0.0005354420445655, 3.260432716319, 3.260999257026, 3.260432716319, 3.260999257026, 6.659772476285, 0.01197370368356, -0.01197370368356, -6.364395348982e-14, 1, 119.733609927, 120, 119.7333950211, 6.660348154823, 3.750378367956, 6.660348154823, 3.750378367956, 6.659772476285, 6.660348129464, 3.750378367944, 23.28941067365, 6.660348129464, 3.750378367944, 3.410085771487e-15, 0, 0.01201427553609, 0.0002327865874518, -0.01201427553608, -0.000232786587445, 0.837425094315, 0.8374972023943, -0.837425094315, -0.8374972023943, 1.393712419519e-17, 0.8375460331053, 0.837500231578, 0, -0.8375460331053, -0.837500231578, -5.551115123126e-17, -5.551115123126e-17, -5.551115123126e-17, -5.551115123126e-17, -0.006234593606575, 0.3170008730012, 0.3241423542292, 0, 0.3170008730012, 0.3241423542292
0.225, -0.01399151538383, -0.0006492581922483, 0.01399151538384, 0.0006492581922376, 2.443356278713e-14, 4.660509015185e-16, 0, -31.80727757723, -14.46153025985, -31.80727757723, -14.46153025985, 19.63394518143, 0.5720164225258, -19.63394518142, -0.5720164225222, 4565.493107281, 2649.531006156, 4565.493107281, 2649.531006156, 6, 0, 2.543907284419e-17, 0.1030002403466, -0, -0, -0, -0, -0, -1.641370557312e-15, 0, 0, 0, 0, 0, -1.641373209525e-15, -0.02437565863166, -0.001204927677554, 0.02437565863165, 0.001204927677551, 3.667439482188, 3.668049875201, 3.667439482188, 3.668049875201, 7.49117238761, 0.01336712547254, -0.01336712547255, -7.649771941506e-14, 1, 119.7012102083, 120, 119.7009677602, 7.49172700111, 4.581758448003, 7.49172700111, 4.581758448003, 7.49117238761, 7.491726969547, 4.581758447942, 24.11630679874, 7.491726969547, 4.581758447942, 4.064119763557e-15, 0, 0.01341096707931, 0.0005200787460101, -0.01341096707931, -0.000520078746002, 0.8374160461526, 0.8374936876847, -0.8374160461526, -0.8374936876847, 2.543907284419e-17, 0.8375508941287, 0.8375005037811, 0, -0.8375508941287, -0.8375005037811, -0, -5.551115123126e-17, -0, -5.551115123126e-17, -0.006070304276389, 0.3169645492733, 0.3241136902039, 0, 0.3169645492733, 0.3241136902039
0.25, -0.01511383649366, -0.0004770913355313, 0.01511383649366, 0.0004770913355329, 2.22843789087e-14, 4.606391449868e-16, 0, -22.9939140146, -14.67550536565, -22.9939140146, -14.67550536565, 21.18965275974, 0.4996259760199, -21.18965275974, -0.4996259760166, 4570.457229681, 2656.317568248, 4570.457229681, 2656.317568248, 6, 0, 3.894112181899e-17, 0.09955359008126, -0, -0, -0, -0, -0, -1.512182680029e-15, 0, 0, 0, 0, 0, -1.512184962701e-15, -0.02652224405962, -0.001271553638229, 0.02652224405962, 0.001271553638227, 4.074367756833, 4.074991621129, 4.074367756833, 4.074991621129, 8.32235213352, 0.01455798253897, -0.01455798253897, -8.813445569704e-14, 1, 119.6698480192, 120, 119.669583589, 8.322885301411, 5.412918250629, 8.322885301411, 5.412918250629, 8.32235213352, 8.322885264015, 5.412918250561, 24.94312763199, 8.322885264015, 5.412918250561, 4.646191805627e-15, 0, 0.01460408796775, 0.0005475861907771, -0.01460408796774, -0.0005475861907806, 0.8374082498047, 0.8374933341054, -0.8374082498047, -0.8374933341054, 3.894112181899e-17, 0.8375549642769, 0.837500526533, 0, -0.8375549642769, -0.837500526533, -0, -0, -0, -0, -0.005918135840123, 0.316946021156, 0.3240883672028, 0, 0.316946021156, 0.3240883672028
0.275, -0.01614185149874, -0.0001677099530091, 0.01614185149873, 0.0001677099529976, 1.952991271537e-14, 3.879841936854e-16, 0, 2.906302399473, -15.09399119187, 2.906302399473, -15.09399119187, 22.23362810127, 0.2722134718533, -22.23362810127, -0.2722134718503, 4570.994230939, 2660.495920158, 4570.994230939, 2660.495920158, 6, 0, 5.435406385982e-17, 0.09598370207754, -0, -0, -0, -0, -0, -1.313281421462e-15, 0, 0, 0, 0, 0, -1.313283264262e-15, -0.02844366318095, -0.0008812568504031, 0.02844366318095, 0.0008812568504007, 4.481242856895, 4.481828192116, 4.481242856895, 4.481828192116, 9.153319943241, 0.01561954079135, -0.01561954079135, -9.879931210766e-14, 1, 119.6402222575, 120, 119.6399350127, 9.153832078367, 6.243865986828, 9.153832078367, 6.243865986828, 9.153319943241, 9.153832035342, 6.243865986795, 25.7699775839, 9.153832035342, 6.243865986795, 5.168748333376e-15, 0, 0.01566721247966, 0.0003785997618616, -0.01566721247965, -0.0003785997618512, 0.83740119673, 0.8374953775295, -0.83740119673, -0.8374953775295, 5.435406385982e-17, 0.8375585390197, 0.8375003620389, 0, -0.8375585390197, -0.8375003620389, -0, 5.551115123126e-17, -0, 5.551115123126e-17, -0.005767644621729, 0.3169440123219, 0.324072776379, 0, 0.3169440123219, 0.324072776379
0.3, -0.01714348420263, 0.0002857249023958, 0.01714348420262, -0.000285724902395, 1.875350812415e-14, 4.087229087492e-16, 0, 53.54415959569, -16.05180212153, 53.54415959569, -16.05180212153, 24.79889932226, -0.08214379620059, -24.79889932226, 0.08214379620325, 4567.216662383, 2664.28772176, 4567.216662383, 2664.28772176, 6, 0, 7.185024610918e-17, 0.09199347519024, -0, -0, -0, -0, -0, -1.030087848543e-15, 0, 0, 0, 0, 0, -1.030089176285e-15, -0.03027898908002, -0.0001353017858694, 0.03027898908001, 0.0001353017858674, 4.888164587092, 4.888568137584, 4.888164587092, 4.888568137584, 9.984100219131, 0.01662257114885, -0.01662257114885, -1.087224104415e-13, 1, 119.6152694938, 120, 119.6149187667, 9.984590336176, 7.074624196658, 9.984590336176, 7.074624196658, 9.984100219131, 9.984590287438, 7.074624196657, 26.59728338118, 9.984590287438, 7.074624196657, 5.645021154862e-15, 0, 0.01667120823171, 5.6757145153e-05, -0.0166712082317, -5.675714515443e-05, 0.8373944694189, 0.8374992847581, -0.8373944694189, -0.8374992847581, 7.185024610918e-17, 0.8375619716589, 0.8375000500102, 0, -0.8375619716589, -0.8375000500102, 5.551115123126e-17, -0, 5.551115123126e-17, -0, -0.005608119682853, 0.3169581025224, 0.324058627903, 0, 0.3169581025224, 0.324058627903
0.325, -0.01819685434702, 0.0009831585491214, 0.01819685434703, -0.0009831585491211, 1.929128304669e-14, 4.613522454636e-16, 0, 109.7951400819, -17.23805375582, 109.7951400819, -17.23805375581, 26.66327680028, -0.6227737445669, -26.66327680027, 0.6227737445714, 4558.769963626, 2671.565019297, 4558.769963626, 2671.565019297, 6, 0, 9.248366022994e-17, 0.08702365938748, -0, -0, -0, -0, -0, -6.334970398151e-16, 0, 0, 0, 0, 0, -6.33497770524e-16, -0.03215262878603, 0.001038550775139, 0.03215262878603, -0.00103855077514, 5.295199925476, 5.295229656714, 5.295199925476, 5.295229656714, 10.81473790263, 0.01764751265689, -0.0176475126569, -1.184797468336e-13, 1, 119.5967653157, 120, 119.5963088338, 10.81520076366, 7.905234725046, 10.81520076366, 7.905234725046, 10.81473790263, 10.81520070872, 7.905234725, 27.42533635177, 10.81520070872, 7.905234725, 6.102237738199e-15, 0, 0.01769636805323, -0.0004491373421552, -0.01769636805324, 0.0004491373421546, 0.8373875129602, 0.8375054292643, -0.8373875129602, -0.8375054292644, 9.248366022994e-17, 0.8375653977899, 0.8374995558276, 0, -0.8375653977899, -0.8374995558276, -0, -0, -0, -0, -0.005428432507712, 0.3169896144031, 0.3240314737554, 0, 0.3169896144031, 0.3240314737554
0.35, -0.01935749955759, 0.002022692965694, 0.01935749955759, -0.002022692965694, 1.707525146826e-14, 5.349403647613e-16, 0, 160.5419563724, -18.35480706311, 160.5419563724, -18.35480706311, 28.38391800771, -1.449508653904, -28.38391800771, 1.449508653909, 4546.638493164, 2682.929641783, 4546.638493164, 2682.929641783, 6, 0, 1.172951185466e-16, 0.08078659351452, -0, -0, -0, -0, -0, -1.043561195458e-16, 0, 0, 0, 0, 0, -1.043562232799e-16, -0.03416965439582, 0.002841337247974, 0.03416965439583, -0.002841337247974, 5.702369206493, 5.701835228349, 5.702369206493, 5.701835228349, 11.64528072623, 0.01875756329141, -0.01875756329142, -1.287116164294e-13, 1, 119.5846153257, 120, 119.5840491076, 11.64570879422, 8.735743942199, 11.64570879422, 8.735743942199, 11.64528072623, 11.64570873216, 8.735743941856, 28.25417643562, 11.64570873216, 8.735743941856, 6.569326171365e-15, 0, 0.01880576091323, -0.001225326836793, -0.01880576091322, 0.001225326836793, 0.8373799483444, 0.8375148542526, -0.8373799483444, -0.8375148542526, 1.172951185466e-16, 0.8375690193875, 0.8374987874111, 0, -0.8375690193875, -0.8374987874111, -0, -0, -0, -0, -0.005224011826107, 0.3170348746172, 0.3239890681024, 0, 0.3170348746172, 0.3239890681024
0.375, -0.02064479315831, 0.003385317570238, 0.02064479315832, -0.003385317570237, 1.441707286078e-14, 2.937392280841e-16, 0, 201.3584467869, -19.25874106181, 201.3584467868, -19.25874106181, 30.20869736706, -2.591977798451, -30.20869736706, 2.591977798455, 4533.306209465, 2695.344983319, 4533.306209465, 2695.344983319, 6, 0, 1.455323934917e-16, 0.07351087303472, -0, -0, -0, -0, -0, 5.982346380339e-16, 0, 0, 0, 0, 0, 5.982351304131e-16, -0.03638753565549, 0.005391342070862, 0.0363875356555, -0.005391342070861, 6.10966570114, 6.108405640645, 6.10966570114, 6.108405640645, 12.47576770793, 0.01998726264456, -0.01998726264458, -1.378475609776e-13, 1, 119.5778501264, 120, 119.5772124469, 12.47615444803, 9.5661923587, 12.47615444803, 9.5661923587, 12.47576770793, 12.47615437762, 9.566192357464, 29.08371388111, 12.47615437762, 9.566192357464, 6.965075409423e-15, 0, 0.02003396457881, -0.002321638081303, -0.02003396457882, 0.002321638081304, 0.8373715591869, 0.8375281637806, -0.8373715591869, -0.8375281637806, 1.455323934917e-16, 0.8375729340291, 0.8374976818473, 0, -0.8375729340291, -0.8374976818473, -0, -0, -0, -0, -0.004999669311997, 0.3170846143781, 0.3239427411654, 0, 0.3170846143781, 0.3239427411654
0.4, -0.02203725612742, 0.00493681774836, 0.02203725612741, -0.004936817748372, 1.020755397308e-14, 2.258326138454e-16, 0, 232.4822445475, -19.93364033743, 232.4822445475, -19.93364033743, 32.188797847, -3.963480986313, -32.188797847, 3.963480986315, 4521.584935741, 2705.097589059, 4521.584935741, 2705.097589059, 6, 0, 1.757023020155e-16, 0.06577575113991, -0, -0, -0, -0, -0, 1.444103500858e-15, 0, 0, 0, 0, 0, 1.444104452459e-15, -0.03879760132383, 0.00857939424587, 0.03879760132383, -0.008579394245867, 6.517071559969, 6.514957459968, 6.517071559969, 6.514957459968, 13.30622699518, 0.02133246955503, -0.02133246955503, -1.453656153589e-13, 1, 119.5752921309, 120, 119.574638291, 13.30656915641, 10.39661132503, 13.30656915641, 10.39661132503, 13.30622699518, 13.30656907629, 10.3966113219, 29.9138156467, 13.30656907629, 10.3966113219, 7.265692236149e-15, 0, 0.0213770234147, -0.003689669973365, -0.02137702341469, 0.003689669973379, 0.8373623698188, 0.8375447709546, -0.8373623698188, -0.8375447709546, 1.757023020155e-16, 0.8375771119882, 0.8374962696461, 0, -0.8375771119882, -0.8374962696461, -0, -0, -0, -0, -0.004766659119967, 0.317128341713, 0.3239063486484, 0, 0.317128341713, 0.3239063486484
0.425, -0.02348495301059, 0.006512601917302, 0.02348495301059, -0.006512601917303, 1.337756630746e-14, 7.100573416202e-16, 0, 255.5206309617, -20.4224091714, 255.5206309618, -20.4224091714, 34.29614358972, -5.412564273814, -34.29614358972, 5.412564273818, 4513.292551527, 2710.498737437, 4513.292551527, 2710.498737438, 6, 0, 2.067936682839e-16, 0.0581662906798, -0, -0, -0, -0, -0, 2.27033117488e-15, 0, 0, 0, 0, 0, 2.270332344802e-15, -0.04133301359566, 0.01211477519576, 0.04133301359567, -0.01211477519576, 6.924567999607, 6.921503058974, 6.924567999607, 6.921503058974, 14.136678876, 0.02275557627018, -0.0227555762702, -1.519458485726e-13, 1, 119.5758905436, 120, 119.5752641601, 14.13697665327, 11.22702411746, 14.13697665327, 11.22702411746, 14.136678876, 14.13697656224, 11.22702411124, 30.7443544538, 14.13697656224, 11.22702411124, 7.515307539501e-15, 0, 0.02279754901262, -0.005203524677406, -0.02279754901262, 0.005203524677408, 0.8373526263533, 0.8375631480823, -0.8373526263533, -0.8375631480823, 2.067936682839e-16, 0.8375814241796, 0.8374946647058, 0, -0.8375814241796, -0.8374946647058, -0, -5.551115123126e-17, -0, -5.551115123126e-17, -0.004537079609529, 0.317159273624, 0.3238861915007, 0, 0.317159273624, 0.3238861915007
0.45, -0.02493085648407, 0.008002049944894, 0.02493085648408, -0.008002049944909, 1.455564645998e-14, 5.617681536602e-16, 0, 272.4537386922, -20.78212568561, 272.4537386922, -20.78212568561, 36.46174499843, -6.81111922677, -36.46174499842, 6.811119226776, 4508.727311785, 2712.372318729, 4508.727311785, 2712.372318729, 6, 0, 2.331636638644e-16, 0.05102808431186, -0, -0, -0, -0, -0, 1.785266780401e-15, 0, 0, 0, 0, 0, 1.785267488423e-15, -0.04389935254746, 0.01568533564914, 0.04389935254747, -0.01568533564913, 7.332139252405, 7.328051648509, 7.332139252405, 7.328051648509, 14.96713920444, 0.02420274680318, -0.0242027468032, -1.608674801139e-13, 1, 119.5788140007, 120, 119.5782334491, 14.96739493679, 12.05744816375, 14.96739493679, 12.05744816375, 14.96713920444, 14.96739483397, 12.05744815334, 31.57522718349, 14.96739483397, 12.05744815334, 7.907754518828e-15, 0, 0.02424185353447, -0.006729193345469, -0.02424185353448, 0.006729193345484, 0.8373426866577, 0.8375816673414, -0.8373426866577, -0.8375816673414, 2.331636638644e-16, 0.8375857034331, 0.8374930019278, 0, -0.8375857034331, -0.8374930019278, -0, -0, -0, -0, -0.004319473195292, 0.3171762975294, 0.3238791956294, 0, 0.3171762975294, 0.3238791956294
0.475, -0.02632957324252, 0.009376205762221, 0.02632957324253, -0.009376205762234, 1.064502241762e-14, 7.785549274333e-16, 0, 284.9738656921, -21.05691424658, 284.9738656921, -21.05691424658, 38.6085606286, -8.104714546194, -38.60856062859, 8.1047145462, 4507.008890094, 2712.774047355, 4507.008890094, 2712.774047355, 6, 0, 2.615017268566e-16, 0.04442946183981, -0, -0, -0, -0, -0, 1.189521859957e-15, 0, 0, 0, 0, 0, 1.189522217591e-15, -0.04640928485081, 0.01909328077958, 0.04640928485081, -0.01909328077958, 7.739773632691, 7.734610282484, 7.739773632691, 7.734610282484, 15.79762127975, 0.02562367362917, -0.02562367362918, -1.685733133314e-13, 1, 119.5834466145, 120, 119.5829091005, 15.79783786751, 12.88789688859, 15.79783786751, 12.88789688859, 15.79762127975, 15.79783775245, 12.88789687317, 32.40635865482, 15.79783775245, 12.88789687317, 8.225803029195e-15, 0, 0.02565966897865, -0.008182544965758, -0.02565966897865, 0.008182544965775, 0.8373328895534, 0.8375993040404, -0.8373328895534, -0.8375993040404, 2.615017268566e-16, 0.837589805928, 0.8374913748368, 0, -0.837589805928, -0.8374913748368, -0, -0, -0, -0, -0.004117370336749, 0.3171826985984, 0.3238776907953, 0, 0.3171826985984, 0.3238776907953
0.5, -0.02765587949322, 0.01066164513131, 0.02765587949322, -0.01066164513131, 6.448281924163e-15, 4.590501453579e-16, 0, 294.4342981187, -21.27410163746, 294.4342981187, -21.27410163746, 40.67666611511, -9.30352163849, -40.67666611511, 9.303521638496, 4506.828699871, 2713.408489598, 4506.828699871, 2713.408489598, 6, 0, 3.015382278705e-16, 0.0382744980601, -0, -0, -0, -0, -0, 1.667024691954e-15, 0, 0, 0, 0, 0, 1.667025063905e-15, -0.04880475216659, 0.02228846836403, 0.04880475216659, -0.02228846836402, 8.147463243975, 8.14118447816, 8.147463243975, 8.14118447816, 16.62813621526, 0.02698434715304, -0.02698434715306, -1.751490081864e-13, 1, 119.5893519926, 120, 119.5888461782, 16.62831614828, 13.71838078105, 16.62831614828, 13.71838078105, 16.62813621526, 16.62831602088, 13.71838076007, 33.23769818445, 16.62831602088, 13.71838076007, 8.442060984519e-15, 0, 0.02701695553884, -0.009542875567917, -0.02701695553883, 0.009542875567921, 0.8373234672607, 0.8376158026074, -0.8373234672607, -0.8376158026074, 3.015382278705e-16, 0.8375936452289, 0.8374898127861, 0, -0.8375936452289, -0.8374898127861, -5.551115123126e-17, -0, -5.551115123126e-17, -0, -0.003930369169609, 0.3171833599312, 0.3238753169513, 0, 0.3171833599312, 0.3238753169513
0.525, -0.02890311011866, 0.01189560858496, 0.02890311011866, -0.01189560858496, 2.032811488045e-15, 4.017464566158e-16, 0, 301.7926618926, -21.4481208641, 301.7926618926, -21.4481208641, 42.63383201829, -10.44184468865, -42.63383201829, 10.44184468865, 4507.090587206, 2714.853115918, 4507.090587206, 2714.853115918, 6, 0, 3.440045371813e-16, 0.0324432099627, -0, -0, -0, -0, -0, 2.351182172109e-15, 0, 0, 0, 0, 0, 2.351182549038e-15, -0.05106132750943, 0.02531370238181, 0.05106132750943, -0.0253137023818, 8.555203133355, 8.547778546451, 8.555203133355, 8.547778546451, 17.45869280127, 0.02826985196136, -0.02826985196137, -1.796980936368e-13, 1, 119.5962300577, 120, 119.5957468981, 17.45883796774, 14.54890799335, 17.45883796774, 14.54890799335, 17.45869280127, 17.45883782813, 14.54890796631, 34.06921320379, 17.45883782813, 14.54890796631, 8.539022313928e-15, 0, 0.02829876950931, -0.01082898235001, -0.02829876950931, 0.01082898235002, 0.8373145247218, 0.8376313886398, -0.8373145247218, -0.8376313886398, 3.440045371813e-16, 0.8375971939763, 0.837488300489, 0, -0.8375971939763, -0.837488300489, -0, -5.551115123126e-17, -0, -5.551115123126e-17, -0.003756214225409, 0.3171823718531, 0.3238699194513, 0, 0.3171823718531, 0.3238699194513
0.55, -0.03007602163057, 0.01309566778414, 0.03007602163057, -0.01309566778416, -9.897132932121e-16, 6.582323654721e-16, 0, 307.6523471756, -21.58664018484, 307.6523471756, -21.58664018484, 44.47274165233, -11.54306969815, -44.47274165233, 11.54306969815, 4507.190472924, 2716.74512166, 4507.190472924, 2716.74512166, 6, 0, 3.763608314777e-16, 0.02687222632903, -0, -0, -0, -0, -0, 1.741921272542e-15, 0, 0, 0, 0, 0, 1.741921464126e-15, -0.05317962689247, 0.02822575664661, 0.05317962689247, -0.02822575664661, 8.962990219115, 8.954395811492, 8.962990219115, 8.954395811492, 18.28929758577, 0.02947970357807, -0.02947970357808, -1.820342843568e-13, 1, 119.6038723786, 120, 119.6034091824, 18.28940954478, 15.37948478008, 18.28940954478, 15.37948478008, 18.28929758577, 18.28940939318, 15.37948474648, 34.90088219444, 18.28940939318, 15.37948474648, 8.551967131006e-15, 0, 0.0295046485405, -0.01206531980927, -0.02950464854049, 0.01206531980929, 0.8373060698161, 0.8376463593797, -0.8373060698161, -0.8376463593797, 3.763608314777e-16, 0.8376004653641, 0.8374868140403, 0, -0.8376004653641, -0.8374868140403, -5.551115123126e-17, -0, -5.551115123126e-17, -0, -0.003592533487308, 0.317181988478, 0.3238628520385, 0, 0.317181988478, 0.3238628520385
0.575, -0.031183324936, 0.01425515844299, 0.031183324936, -0.014255158443, -7.105410783451e-15, 2.371900783653e-16, 0, 312.3582722664, -21.69525067214, 312.3582722663, -21.69525067214, 46.20114313935, -12.60786071299, -46.20114313935, 12.60786071299, 4506.969433925, 2718.431926444, 4506.969433925, 2718.431926443, 6, 0, 4.132591092276e-16, 0.02156055853059, -0, -0, -0, -0, -0, 1.401436520361e-15, 0, 0, 0, 0, 0, 1.401436619585e-15, -0.05517251306328, 0.03104622352976, 0.05517251306329, -0.03104622352975, 9.370822389889, 9.361038816698, 9.370822389889, 9.361038816698, 19.11995533014, 0.03062062420439, -0.03062062420441, -1.829738992352e-13, 1, 119.6121256451, 120, 119.6116843504, 19.12003563484, 16.21011592076, 19.12003563484, 16.21011592076, 19.11995533014, 19.1200354715, 16.21011588015, 35.73268926769, 19.1200354715, 16.21011588015, 8.473387918012e-15, 0, 0.03064138794439, -0.01326119047111, -0.03064138794438, 0.01326119047113, 0.8372980616103, 0.8376608305236, -0.8372980616103, -0.8376608305236, 4.132591092276e-16, 0.8376034903065, 0.8374853459829, 0, -0.8376034903065, -0.8374853459829, -0, -5.551115123126e-17, -0, -5.551115123126e-17, -0.003437672420321, 0.3171828028183, 0.3238565497455, 0, 0.3171828028183, 0.3238565497455
0.6, -0.03223287057243, 0.01535585909924, 0.03223287057245, -0.01535585909925, -9.812302960575e-15, 1.34571651147e-16, 0, 316.0988647265, -21.77925134657, 316.0988647265, -21.77925134657, 47.83174070172, -13.62210572192, -47.83174070172, 13.62210572192, 4506.517042992, 2719.509536798, 4506.517042992, 2719.509536798, 6, 0, 4.59443727273e-16, 0.01653436438295, -0, -0, -0, -0, -0, 2.196451906299e-15, 0, 0, 0, 0, 0, 2.196451997757e-15, -0.05705482665911, 0.03375722973985, 0.05705482665911, -0.03375722973985, 9.778697923221, 9.767709525626, 9.778697923221, 9.767709525626, 19.95066961103, 0.03170064318846, -0.03170064318848, -1.819656274814e-13, 1, 119.6208670058, 120, 119.620450487, 19.95071995061, 17.04080511314, 19.95071995061, 17.04080511314, 19.95066961103, 19.95071977577, 17.04080506516, 36.56462106756, 19.95071977577, 17.04080506516, 8.258574359862e-15, 0, 0.03171710934225, -0.01440911507712, -0.03171710934226, 0.01440911507713, 0.8372904500797, 0.8376747147866, -0.8372904500797, -0.8376747147866, 4.59443727273e-16, 0.8376063007222, 0.8374839090251, 0, -0.8376063007222, -0.8374839090251, 5.551115123126e-17, -0, 5.551115123126e-17, -0, -0.003290761877786, 0.3171844806381, 0.3238525201463, 0, 0.3171844806381, 0.3238525201463
0.625, -0.03322987394287, 0.01638284655265, 0.03322987394287, -0.01638284655265, -1.426432155414e-14, 2.103055728491e-16, 0, 318.9862824041, -21.84343143169, 318.9862824041, -21.84343143169, 49.37575816345, -14.57106277867, -49.37575816345, 14.57106277867, 4505.988465844, 2719.978516984, 4505.988465844, 2719.978516984, 6, 0, 4.984689639564e-16, 0.01181225077107, -0, -0, -0, -0, -0, 2.235511706522e-15, 0, 0, 0, 0, 0, 2.23551175403e-15, -0.05883812533659, 0.03632470796051, 0.0588381253366, -0.0363247079605, 10.18661519158, 10.17440948335, 10.18661519158, 10.17440948335, 20.78144328361, 0.03272601786306, -0.03272601786307, -1.789675602094e-13, 1, 119.6299904317, 120, 119.6296000074, 20.78146544091, 17.87155526845, 20.78146544091, 17.87155526845, 20.78144328361, 20.7814652548, 17.87155521292, 37.39666550686, 20.7814652548, 17.87155521292, 7.958774580385e-15, 0, 0.0327381487859, -0.01549482991763, -0.0327381487859, 0.01549482991764, 0.8372831969053, 0.8376878417663, -0.8372831969053, -0.8376878417663, 4.984689639564e-16, 0.8376089217555, 0.8374825249773, 0, -0.8376089217555, -0.8374825249773, -0, -0, -0, -0, -0.003151442318582, 0.3171864429555, 0.3238507613452, 0, 0.3171864429555, 0.3238507613452
0.65, -0.034177090116, 0.01733164912897, 0.03417709011601, -0.01733164912896, -1.395078825951e-14, 2.453550254434e-16, 0, 321.1056837964, -21.8914105373, 321.1056837964, -21.8914105373, 50.84066143535, -15.44834977378, -50.84066143535, 15.44834977378, 4505.507930547, 2720.089242284, 4505.507930547, 2720.089242284, 6, 0, 5.31026416243e-16, 0.007392404188503, -0, -0, -0, -0, -0, 1.431107724659e-15, 0, 0, 0, 0, 0, 1.431107736571e-15, -0.06052957118161, 0.03872317493691, 0.06052957118161, -0.03872317493691, 10.59457255455, 10.581139914, 10.59457255455, 10.581139914, 21.61227868621, 0.03370053908223, -0.03370053908225, -1.745596080593e-13, 1, 119.6394009233, 120, 119.6390360151, 21.61227442728, 18.70236867585, 21.61227442728, 18.70236867585, 21.61227868621, 21.61227423014, 18.70236861278, 38.22881146609, 21.61227423014, 18.70236861278, 7.608609170985e-15, 0, 0.03370834899812, -0.01650779703889, -0.03370834899812, 0.01650779703889, 0.837276280191, 0.8377000849457, -0.837276280191, -0.8377000849457, 5.31026416243e-16, 0.8376113706864, 0.8374812116737, 0, -0.8376113706864, -0.8374812116737, 5.551115123126e-17, 5.551115123126e-17, 5.551115123126e-17, 5.551115123126e-17, -0.003019586524864, 0.3171882262426, 0.3238503393126, 0, 0.3171882262426, 0.3238503393126
0.675, -0.0350756713299, 0.01820667397661, 0.03507567132991, -0.01820667397662, -1.090810803091e-14, -1.481173925333e-16, 0, 322.5376213989, -21.92549140977, 322.5376213989, -21.92549140977, 52.23051451594, -16.2564760132, -52.23051451594, 16.25647601319, 4505.148591749, 2720.102962265, 4505.148591749, 2720.102962265, 6, 0, 5.751958948006e-16, 0.003259195905162, -0, -0, -0, -0, -0, 1.655977486633e-15, 0, 0, 0, 0, 0, 1.655977489312e-15, -0.06213289538489, 0.04094633575985, 0.0621328953849, -0.04094633575985, 11.00256834326, 10.98790176163, 11.00256834326, 10.98790176163, 22.44317765073, 0.03462605446747, -0.03462605446748, -1.716610120408e-13, 1, 119.6490129844, 120, 119.6486721112, 22.44314865143, 19.53324706514, 22.44314865143, 19.53324706514, 22.44317765073, 22.44314844353, 19.53324699467, 39.06104877729, 22.44314844353, 19.53324699467, 7.302022361928e-15, 0, 0.03462958887319, -0.01744563177221, -0.03462958887319, 0.01744563177222, 0.8372696909726, 0.8377114157822, -0.8372696909726, -0.8377114157822, 5.751958948006e-16, 0.8376136588859, 0.8374799766774, 0, -0.8376136588859, -0.8374799766774, -0, -0, -0, -0, -0.002895146700166, 0.3171895575571, 0.3238502793823, 0, 0.3171895575571, 0.3238502793823
0.7, -0.03592596565783, 0.01901552628938, 0.03592596565784, -0.01901552628937, -1.010452700331e-14, -9.337968452566e-17, 0, 323.3635404898, -21.94710703965, 323.3635404898, -21.94710703965, 53.54720621056, -17.0022021949, -53.54720621056, 17.0022021949, 4504.945754541, 2720.148149529, 4504.945754541, 2720.148149529, 6, 0, 6.236009345908e-16, -0.0006043198212057, -0, -0, -0, -0, -0, 2.350425579995e-15, 0, 0, 0, 0, 0, 2.350425580126e-15, -0.06364979166396, 0.0430030643659, 0.06364979166397, -0.0430030643659, 11.41060088004, 11.39469570282, 11.41060088004, 11.39469570282, 23.27414145821, 0.03550325894443, -0.03550325894444, -1.694494720911e-13, 1, 119.6587506429, 120, 119.6584324802, 23.27408929949, 20.36419162865, 23.27408929949, 20.36419162865, 23.27414145821, 23.27408908115, 20.36419155097, 39.89336819156, 23.27408908115, 20.36419155097, 7.015327463435e-15, 0, 0.03550258760832, -0.01831233745119, -0.03550258760832, 0.01831233745119, 0.8372634279083, 0.8377218830102, -0.8372634279083, -0.8377218830102, 6.236009345908e-16, 0.8376157941985, 0.837478818882, 0, -0.8376157941985, -0.837478818882, -0, -0, -0, -0, -0.002778093986995, 0.3171903051943, 0.3238501022566, 0, 0.3171903051943, 0.3238501022566
0.725, -0.03672807176686, 0.01976428428374, 0.03672807176687, -0.01976428428373, -1.15954935167e-14, 1.021685826593e-16, 0, 323.6640101244, -21.95744512355, 323.6640101244, -21.95744512355, 54.79153480528, -17.69172247828, -54.79153480528, 17.69172247828, 4504.910190081, 2720.21677064, 4504.910190081, 2720.21677064, 6, 0, 6.598900044758e-16, -0.004209143256172, -0, -0, -0, -0, -0, 1.680368551866e-15, 0, 0, 0, 0, 0, 1.680368556401e-15, -0.06508103276144, 0.04490724170233, 0.06508103276144, -0.04490724170233, 11.81866850814, 11.80152215887, 11.81866850814, 11.80152215887, 24.10517084225, 0.03633233593926, -0.03633233593927, -1.670809110668e-13, 1, 119.6685475476, 120, 119.6682513252, 24.10509704462, 21.19520305243, 24.10509704462, 21.19520305243, 24.10517084225, 24.10509681619, 21.19520296776, 40.72576130407, 24.10509681619, 21.19520296776, 6.761045502309e-15, 0, 0.03632755496171, -0.01911398095352, -0.03632755496171, 0.01911398095352, 0.8372574929205, 0.8377315606793, -0.8372574929205, -0.8377315606793, 6.598900044758e-16, 0.837617782729, 0.8374777338662, 0, -0.837617782729, -0.8374777338662, -0, -5.551115123126e-17, -0, -5.551115123126e-17, -0.002668380947164, 0.3171904289963, 0.3238498379509, 0, 0.3171904289963, 0.3238498379509
0.75, -0.03748222362496, 0.020456020178, 0.03748222362495, -0.02045602017799, -1.759891383742e-14, -2.759292044759e-16, 0, 323.5157178671, -21.95783853134, 323.5157178671, -21.95783853134, 55.96393241998, -18.32856781877, -55.96393241999, 18.32856781877, 4505.03239501, 2720.241475837, 4505.03239501, 2720.241475837, 6, 0, 6.95392648284e-16, -0.007560980187014, -0, -0, -0, -0, -0, 1.172759513996e-15, 0, 0, 0, 0, 0, 1.172759524207e-15, -0.06642725838049, 0.04666992997434, 0.06642725838049, -0.04666992997434, 12.22676962222, 12.20838132074, 12.22676962222, 12.20838132074, 24.93626606168, 0.03711341210803, -0.03711341210803, -1.626122228882e-13, 1, 119.678346678, 120, 119.6780719492, 24.93617211488, 22.02628157454, 24.93617211488, 22.02628157454, 24.93626606168, 24.93617187674, 22.02628148312, 41.55822049906, 24.93617187674, 22.02628148312, 6.394560374691e-15, 0, 0.0371046464224, -0.01985539234271, -0.03710464642239, 0.01985539234271, 0.8372518880195, 0.8377405081775, -0.8372518880195, -0.8377405081775, 6.95392648284e-16, 0.837619630023, 0.8374767182937, 0, -0.837619630023, -0.8374767182937, -0, -0, -0, -0, -0.002565896582281, 0.3171899644552, 0.3238497378052, 0, 0.3171899644552, 0.3238497378052
0.775, -0.03818907233676, 0.0210919189395, 0.03818907233678, -0.0210919189395, -1.838524767024e-14, -3.531618530972e-16, 0, 322.9894901984, -21.94979890865, 322.9894901984, -21.94979890865, 57.06497132097, -18.91419757338, -57.06497132097, 18.91419757338, 4505.284166376, 2720.171703258, 4505.284166376, 2720.171703258, 6, 0, 7.372936400949e-16, -0.01066503357072, -0, -0, -0, -0, -0, 1.6868148741e-15, 0, 0, 0, 0, 0, 1.686814903322e-15, -0.06768955270074, 0.0482972766924, 0.06768955270075, -0.04829727669239, 12.63490269437, 12.61527318457, 12.63490269437, 12.61527318457, 25.76742700593, 0.03784689151209, -0.03784689151211, -1.571428015554e-13, 1, 119.6880997212, 120, 119.6878459377, 25.76731437117, 22.85742706019, 25.76731437117, 22.85742706019, 25.76742700593, 25.76731412372, 22.85742696233, 42.39073894172, 25.76731412372, 22.85742696233, 5.954622890132e-15, 0, 0.0378342924345, -0.02053929878111, -0.03783429243451, 0.02053929878112, 0.8372466129057, 0.8377487594869, -0.8372466129057, -0.8377487594869, 7.372936400949e-16, 0.8376213418676, 0.8374757712243, 0, -0.8376213418676, -0.8374757712243, -0, -0, -0, -0, -0.002470428132598, 0.3171890168316, 0.3238499905276, 0, 0.3171890168316, 0.3238499905276
0.8, -0.03884984667226, 0.02167308836682, 0.03884984667225, -0.02167308836683, -2.220805903716e-14, -7.297939987947e-16, 0, 322.1493622341, -21.93483296974, 322.1493622341, -21.93483296974, 58.09576309912, -19.44964023679, -58.09576309913, 19.44964023678, 4505.624818773, 2720.003493901, 4505.624818773, 2720.003493901, 6, 0, 7.759607388171e-16, -0.01352994650361, -0, -0, -0, -0, -0, 2.299987894349e-15, 0, 0, 0, 0, 0, 2.299987958476e-15, -0.06886983277011, 0.049792641394, 0.06886983277011, -0.04979264139399, 13.04306629045, 13.02219758869, 13.04306629045, 13.02219758869, 26.59865328754, 0.03853368160359, -0.03853368160359, -1.50029671148e-13, 1, 119.6977662911, 120, 119.6975325639, 26.59852337725, 23.68863907471, 26.59852337725, 23.68863907471, 26.59865328754, 26.59852312095, 23.68863897073, 43.22331058809, 26.59852312095, 23.68863897073, 5.433594251862e-15, 0, 0.03851741960561, -0.02116723595542, -0.0385174196056, 0.02116723595543, 0.837241663339, 0.8377563339735, -0.837241663339, -0.8377563339735, 7.759607388171e-16, 0.8376229247904, 0.8374748929942, 0, -0.8376229247904, -0.8374748929942, -5.551115123126e-17, -0, -5.551115123126e-17, -0, -0.002381654913168, 0.3171877379549, 0.3238506109392, 0, 0.3171877379549, 0.3238506109392
0.825, -0.03946634820934, 0.02220160605092, 0.03946634820933, -0.02220160605092, -1.967855286783e-14, -2.179930016117e-16, 0, 321.0521354042, -21.91425321124, 321.0521354042, -21.91425321124, 59.05821451686, -19.93665716713, -59.05821451686, 19.93665716713, 4506.012479822, 2719.765993826, 4506.012479822, 2719.765993826, 6, 0, 7.980351525935e-16, -0.01616845537423, -0, -0, -0, -0, -0, 1.46215277212e-15, 0, 0, 0, 0, 0, 1.462152830338e-15, -0.06997098134277, 0.05115960694128, 0.06997098134277, -0.05115960694128, 13.45125907429, 13.4291542445, 13.45125907429, 13.4291542445, 27.42994429985, 0.039175272201, -0.039175272201, -1.413947947581e-13, 1, 119.7073130935, 120, 119.7070982413, 27.42979845371, 24.51991694152, 27.42979845371, 24.51991694152, 27.42994429985, 27.42979818899, 24.51991683179, 44.0559301667, 27.42979818899, 24.51991683179, 4.891066212563e-15, 0, 0.03915552844927, -0.02174082190047, -0.03915552844926, 0.02174082190048, 0.8372370305934, 0.8377632517269, -0.8372370305934, -0.8377632517269, 7.980351525935e-16, 0.8376243861997, 0.8374740835141, 0, -0.8376243861997, -0.8374740835141, -5.551115123126e-17, -0, -5.551115123126e-17, -0, -0.002299180584888, 0.3171862840736, 0.3238514903263, 0, 0.3171862840736, 0.3238514903263
0.85, -0.04004078883308, 0.02268048345367, 0.04004078883308, -0.02268048345367, -1.104504762475e-14, -2.056323112905e-16, 0, 319.7471539268, -21.88910710528, 319.7471539268, -21.88910710528, 59.95505335292, -20.37790260672, -59.95505335292, 20.37790260672, 4506.415231856, 2719.492760871, 4506.415231856, 2719.492760871, 6, 0, 8.256547257917e-16, -0.01859540513864, -0, -0, -0, -0, -0, 1.071781745595e-15, 0, 0, 0, 0, 0, 1.071781802042e-15, -0.07099669472373, 0.05240354130724, 0.07099669472373, -0.05240354130724, 13.85947980108, 13.83614275919, 13.85947980108, 13.83614275919, 28.26129924555, 0.03977364896088, -0.03977364896089, -1.360498609782e-13, 1, 119.7167130686, 120, 119.7165158269, 28.2611387177, 25.35125978421, 28.2611387177, 25.35125978421, 28.26129924555, 28.26113844502, 25.35125966912, 44.8885931104, 28.26113844502, 25.35125966912, 4.512393622582e-15, 0, 0.03975060899709, -0.02226241302446, -0.03975060899709, 0.02226241302447, 0.8372327021257, 0.8377695415677, -0.8372327021257, -0.8377695415677, 8.256547257917e-16, 0.8376257341586, 0.8374733413652, 0, -0.8376257341586, -0.8374733413652, -5.551115123126e-17, -0, -5.551115123126e-17, -0, -0.002222586433257, 0.3171847742834, 0.3238525034975, 0, 0.3171847742834, 0.3238525034975
0.875, -0.04057554704317, 0.02311304911655, 0.04057554704316, -0.02311304911655, -3.983074149283e-15, -4.698048619258e-16, 0, 318.2763882856, -21.86022243008, 318.2763882856, -21.86022243007, 60.78961468141, -20.77642761284, -60.78961468141, 20.77642761284, 4506.816668817, 2719.202767979, 4506.816668817, 2719.202767979, 6, 0, 8.628588692554e-16, -0.02082521784536, -0, -0, -0, -0, -0, 1.481072595096e-15, 0, 0, 0, 0, 0, 1.481072692928e-15, -0.07195112675927, 0.05353135110175, 0.07195112675927, -0.05353135110175, 14.26772730476, 14.24316265255, 14.26772730476, 14.24316265255, 29.09271715463, 0.04033108689011, -0.04033108689011, -1.353705588031e-13, 1, 119.7259445246, 120, 119.7257637331, 29.09254311536, 26.18266655847, 29.09254311536, 26.18266655847, 29.09271715463, 29.09254283516, 26.1826664384, 45.7212954509, 29.09254283516, 26.1826664384, 4.351441342045e-15, 0, 0.04030493756909, -0.02273499776725, -0.04030493756908, 0.02273499776726, 0.8372286631071, 0.8377752398726, -0.8372286631071, -0.8377752398726, 8.628588692554e-16, 0.837626976913, 0.8374726639499, 0, -0.837626976913, -0.8374726639498, -0, -0, -0, -0, -0.00215147917046, 0.3171832697943, 0.3238535796669, 0, 0.3171832697943, 0.3238535796669
0.9, -0.04107294533571, 0.02350239521738, 0.04107294533571, -0.02350239521738, -3.623028859712e-15, -6.921972524486e-16, 0, 316.6749678071, -21.82829561885, 316.6749678071, -21.82829561885, 61.5654903405, -21.13513674402, -61.56549034051, 21.13513674402, 4507.214293118, 2718.898823257, 4507.214293118, 2718.898823257, 6, 0, 9.015900817582e-16, -0.02287045823751, -0, -0, -0, -0, -0, 2.145324820972e-15, 0, 0, 0, 0, 0, 2.145324991882e-15, -0.07283848868087, 0.05455037345598, 0.07283848868087, -0.05455037345597, 14.67600048478, 14.65021337127, 14.67600048478, 14.65021337127, 29.9241969061, 0.04084991608731, -0.04084991608731, -1.368738122043e-13, 1, 119.7349902998, 120, 119.7348249681, 29.92401045199, 27.01413608043, 29.92401045199, 27.01413608043, 29.9241969061, 29.92401016471, 27.01413595578, 46.55403370723, 29.92401016471, 27.01413595578, 4.299277569741e-15, 0, 0.04082084477126, -0.0231617302099, -0.04082084477125, 0.0231617302099, 0.8372248981353, 0.8377803850016, -0.8372248981353, -0.8377803850016, 9.015900817582e-16, 0.8376281223914, 0.8374720481689, 0, -0.8376281223914, -0.8374720481689, -0, -0, -0, -0, -0.002085515251412, 0.3171817799159, 0.3238547083559, 0, 0.3171817799159, 0.3238547083559
0.925, -0.04153512046963, 0.02385120660083, 0.04153512046964, -0.02385120660083, -6.36618547303e-15, -2.536456380234e-16, 0, 314.9721206429, -21.79395492388, 314.9721206429, -21.79395492388, 62.28619497103, -21.45656451287, -62.28619497103, 21.45656451287, 4507.613272014, 2718.57673651, 4507.613272014, 2718.57673651, 6, 0, 9.236415629368e-16, -0.02474185415318, -0, -0, -0, -0, -0, 1.502997399738e-15, 0, 0, 0, 0, 0, 1.502997539873e-15, -0.07366275391755, 0.05546747968916, 0.07366275391755, -0.05546747968916, 15.08429829594, 15.05729430258, 15.08429829594, 15.05729430258, 30.75573725699, 0.04133234700211, -0.04133234700212, -1.356872703805e-13, 1, 119.7438370051, 120, 119.7436862686, 30.75553942126, 27.84566705431, 30.75553942126, 27.84566705431, 30.75573725699, 30.75553912731, 27.84566692547, 47.3868047943, 30.75553912731, 27.84566692547, 4.156893472798e-15, 0, 0.04130054129197, -0.02354555530313, -0.04130054129197, 0.02354555530313, 0.8372213924994, 0.8377850127666, -0.8372213924994, -0.8377850127666, 9.236415629368e-16, 0.8376291778601, 0.8374714909839, 0, -0.8376291778601, -0.8374714909839, -0, 5.551115123126e-17, -0, 5.551115123126e-17, -0.002024399813194, 0.3171802853562, 0.3238559051946, 0, 0.3171802853562, 0.3238559051946
0.95, -0.04196400003156, 0.02416190737969, 0.04196400003156, -0.02416190737969, -7.583900496131e-15, -3.843232701558e-16, 0, 313.1922903456, -21.75777558069, 313.1922903456, -21.75777558069, 62.95496372561, -21.74297001831, -62.95496372562, 21.74297001831, 4508.019693371, 2718.234673978, 4508.019693371, 2718.234673978, 6, 0, 9.427127309675e-16, -0.02644914019069, -0, -0, -0, -0, -0, 8.571403539909e-16, 0, 0, 0, 0, 0, 8.57140445318e-16, -0.07442753626396, 0.05628885540397, 0.07442753626396, -0.05628885540397, 15.4926197422, 15.46440478753, 15.4926197422, 15.46440478753, 31.58733687378, 0.04178039619053, -0.04178039619053, -1.332713041453e-13, 1, 119.7524743881, 120, 119.7523374266, 31.58712863207, 28.67725809867, 31.58712863207, 28.67725809867, 31.58733687378, 31.58712833187, 28.67725796601, 48.21960596081, 31.58712833187, 28.67725796601, 3.960443613398e-15, 0, 0.04174604304933, -0.0238891192514, -0.04174604304932, 0.02388911925141, 0.8372181327112, 0.8377891553164, -0.8372181327112, -0.8377891553164, 9.427127309675e-16, 0.8376301498113, 0.8374709895764, 0, -0.8376301498113, -0.8374709895764, 5.551115123126e-17, -5.551115123126e-17, 5.551115123126e-17, -5.551115123126e-17, -0.001967870537313, 0.3171787633885, 0.3238571770189, 0, 0.3171787633885, 0.3238571770189
0.975, -0.04236135075701, 0.02443688423222, 0.04236135075702, -0.02443688423221, -4.725574744615e-15, -5.007007889237e-16, 0, 311.3561581623, -21.72026443484, 311.3561581623, -21.72026443484, 63.57470969262, -21.99654242453, -63.57470969262, 21.99654242453, 4508.436376253, 2717.876599369, 4508.436376253, 2717.876599369, 6, 0, 9.660210847398e-16, -0.02800188242655, -0, -0, -0, -0, -0, 8.778929120246e-16, 0, 0, 0, 0, 0, 8.77893016868e-16, -0.07513611848387, 0.05702028356806, 0.07513611848388, -0.05702028356806, 15.90096387338, 15.87154413279, 15.90096387338, 15.87154413279, 32.4189943596, 0.04219590022643, -0.04219590022645, -1.31897226372e-13, 1, 119.7608948291, 120, 119.7607708109, 32.41877663119, 29.50890776929, 32.41877663119, 29.50890776929, 32.4189943596, 32.41877632513, 29.50890763319, 49.05243475, 32.41877632513, 29.50890763319, 3.807647914941e-15, 0, 0.04215918434882, -0.02419489055043, -0.04215918434882, 0.02419489055042, 0.8372151064062, 0.8377928425755, -0.8372151064062, -0.8377928425755, 9.660210847398e-16, 0.8376310440434, 0.8374705412013, 0, -0.8376310440434, -0.8374705412013, -5.551115123126e-17, -0, -5.551115123126e-17, -0, -0.00191567961646, 0.3171772034833, 0.3238585090295, 0, 0.3171772034833, 0.3238585090295
1, -0.04272884777191, 0.02467859864901, 0.0427288477719, -0.024678598649, -4.040813059532e-15, -3.929341243442e-16, 0, 309.4814058244, -21.68184353294, 309.4814058244, -21.68184353294, 64.14809327216, -22.21952670161, -64.14809327216, 22.21952670161, 4508.862000266, 2717.510084619, 4508.862000266, 2717.510084619, 6, 0, 9.893414208568e-16, -0.02940981463693, -0, -0, -0, -0, -0, 1.131115357858e-15, 0, 0, 0, 0, 0, 1.131115506868e-15, -0.07579155616594, 0.05766750615205, 0.07579155616594, -0.05766750615204, 16.30932978338, 16.27871162037, 16.30932978338, 16.27871162037, 33.25070827402, 0.04258057436447, -0.04258057436447, -1.314589358144e-13, 1, 119.7690929461, 120, 119.7689810211, 33.25048192112, 30.3406145776, 33.25048192112, 30.3406145776, 33.25070827402, 33.2504816096, 30.34061443841, 49.8852889714, 33.2504816096, 30.34061443841, 3.704097865722e-15, 0, 0.04254167629696, -0.02446531294018, -0.04254167629695, 0.02446531294018, 0.8372123019331, 0.8377961040969, -0.8372123019331, -0.8377961040969, 9.893414208568e-16, 0.8376318658295, 0.8374701429881, 0, -0.8376318658295, -0.8374701429881, -0, -0, -0, -0, -0.001867582410647, 0.3171756105565, 0.3238598729597, 0, 0.3171756105565, 0.3238598729597
1.025, -0.04306812641378, 0.02488955090011, 0.04306812641378, -0.0248895509001, -7.846000784917e-15, -5.630449983256e-16, 0, 307.5832051379, -21.64285035928, 307.5832051378, -21.64285035928, 64.67762704692, -22.41421136854, -64.67762704693, 22.41421136854, 4509.292491394, 2717.142247579, 4509.292491394, 2717.142247579, 6, 0, 1.010880232663e-15, -0.03068270485564, -0, -0, -0, -0, -0, 1.501416866095e-15, 0, 0, 0, 0, 0, 1.50141708138e-15, -0.07639678135463, 0.05823636852909, 0.07639678135463, -0.05823636852909, 16.71771660831, 16.68590651509, 16.71771660831, 16.68590651509, 34.08247714635, 0.04293607179526, -0.04293607179527, -1.304761092092e-13, 1, 119.7770652764, 120, 119.776964601, 34.08224297396, 31.17237700479, 34.08224297396, 31.17237700479, 34.08247714635, 34.08224265735, 31.17237686286, 50.71816667426, 34.08224265735, 31.17237686286, 3.574801353728e-15, 0, 0.04289516637208, -0.02470286653205, -0.04289516637209, 0.02470286653205, 0.8372097079468, 0.8377989698253, -0.8372097079467, -0.8377989698253, 1.010880232663e-15, 0.837632620079, 0.8374697918726, 0, -0.837632620079, -0.8374697918726, -0, -0, -0, -0, -0.001823334569984, 0.3171739997981, 0.323861242233, 0, 0.3171739997981, 0.323861242233
1.05, -0.04338080267876, 0.02507217001599, 0.04338080267876, -0.02507217001598, -1.028529151918e-14, -4.119116253042e-16, 0, 305.6745223666, -21.6035541959, 305.6745223666, -21.6035541959, 65.16575634945, -22.58283417603, -65.16575634946, 22.58283417602, 4509.723027496, 2716.777202422, 4509.723027496, 2716.777202422, 6, 0, 1.026129457196e-15, -0.03183003574545, -0, -0, -0, -0, -0, 1.801572863423e-15, 0, 0, 0, 0, 0, 1.801573141427e-15, -0.07695466338127, 0.05873271564616, 0.07695466338127, -0.05873271564616, 17.12612352443, 17.09312807057, 17.12612352443, 17.09312807057, 34.91429948511, 0.04326401826595, -0.04326401826596, -1.269795770318e-13, 1, 119.7848100041, 120, 119.7847197703, 34.9140582427, 32.00419351305, 34.9140582427, 32.00419351305, 34.91429948511, 34.91405792135, 32.00419336871, 51.55106611988, 34.91405792135, 32.00419336871, 3.331683697983e-15, 0, 0.04322127361322, -0.02491002475675, -0.04322127361323, 0.02491002475674, 0.8372073131826, 0.837801469603, -0.8372073131826, -0.8378014696029, 1.026129457196e-15, 0.8376333114391, 0.83746948468, 0, -0.8376333114391, -0.83746948468, -5.551115123126e-17, -0, -5.551115123126e-17, -0, -0.001782694748459, 0.3171723891887, 0.3238626014773, 0, 0.3171723891887, 0.3238626014773
1.075, -0.04366846818527, 0.02522872272667, 0.04366846818527, -0.02522872272666, -8.585718689519e-15, -1.466765652691e-16, 0, 303.7663439628, -21.56417758188, 303.7663439628, -21.56417758188, 65.6148925428, -22.72749290481, -65.6148925428, 22.72749290481, 4510.149492298, 2716.416061727, 4510.149492298, 2716.416061727, 6, 0, 1.036586403451e-15, -0.03286076348838, -0, -0, -0, -0, -0, 1.85185902104e-15, 0, 0, 0, 0, 0, 1.851859325611e-15, -0.07746802175218, 0.05916218456815, 0.07746802175218, -0.05916218456815, 17.53454974574, 17.50037553404, 17.53454974574, 17.50037553404, 35.74617378655, 0.04356601874036, -0.04356601874036, -1.232571350059e-13, 1, 119.7923267155, 120, 119.792246167, 35.74592617097, 32.83606255511, 35.74592617097, 32.83606255511, 35.74617378655, 35.74592584523, 32.83606240867, 52.38398575419, 35.74592584523, 32.83606240867, 3.094795479693e-15, 0, 0.04352159576678, -0.02508916814672, -0.04352159576677, 0.02508916814672, 0.8372051064298, 0.837803632144, -0.8372051064298, -0.837803632144, 1.036586403451e-15, 0.8376339443315, 0.8374692182707, 0, -0.8376339443315, -0.8374692182707, -5.551115123126e-17, -5.551115123126e-17, -5.551115123126e-17, -5.551115123126e-17, -0.001745428923249, 0.317170794074, 0.3238639465189, 0, 0.317170794074, 0.3238639465189
1.1, -0.04393267351212, 0.0253612870854, 0.04393267351213, -0.02536128708539, -6.6131677074e-15, -1.200153988928e-16, 0, 301.8678911561, -21.52491242511, 301.8678911561, -21.52491242511, 66.02740707259, -22.85011183644, -66.02740707259, 22.85011183644, 4510.569025401, 2716.058510981, 4510.569025401, 2716.058510981, 6, 0, 1.04161774769e-15, -0.03378325379848, -0, -0, -0, -0, -0, 1.357596352738e-15, 0, 0, 0, 0, 0, 1.357596588731e-15, -0.07793960853506, 0.05953005053826, 0.07793960853506, -0.05953005053825, 17.94299452161, 17.90764815079, 17.94299452161, 17.90764815079, 36.57809854308, 0.04384364615809, -0.04384364615811, -1.199770258379e-13, 1, 119.7996161787, 120, 119.7995446101, 36.5778452019, 33.66798258276, 36.5778452019, 33.66798258276, 36.57809854308, 36.5778448721, 33.66798243451, 53.21692418337, 36.5778448721, 33.66798243451, 2.901379843752e-15, 0, 0.04379769830499, -0.02524252081497, -0.04379769830499, 0.02524252081497, 0.8372030766291, 0.8378054842684, -0.8372030766291, -0.8378054842684, 1.04161774769e-15, 0.83763452295, 0.83746898965, 0, -0.83763452295, -0.83746898965, -0, -0, -0, -0, -0.001711313673266, 0.317169225113, 0.323865278509, 0, 0.317169225113, 0.323865278509
1.125, -0.0441749116732, 0.02547178010126, 0.04417491167319, -0.02547178010125, -5.049625597445e-15, -3.733538998466e-16, 0, 299.9868404335, -21.48592707365, 299.9868404335, -21.48592707365, 66.40560731153, -22.95246123432, -66.40560731153, 22.95246123432, 4510.979908916, 2715.704405002, 4510.979908916, 2715.704405002, 6, 0, 1.049091110142e-15, -0.03460534498265, -0, -0, -0, -0, -0, 1.194568157939e-15, 0, 0, 0, 0, 0, 1.194568375822e-15, -0.07837208172612, 0.05984119264821, 0.07837208172612, -0.0598411926482, 18.35145713468, 18.31494516802, 18.35145713468, 18.31494516802, 37.41007225127, 0.04409842487868, -0.04409842487868, -1.177864362634e-13, 1, 119.806680148, 120, 119.8066168971, 37.40981378581, 34.49995205453, 37.40981378581, 34.49995205453, 37.41007225127, 37.40981345226, 34.49995190474, 54.04988015364, 37.40981345226, 34.49995190474, 2.758166805471e-15, 0, 0.04405109794955, -0.02537213709954, -0.04405109794955, 0.02537213709953, 0.837201213004, 0.8378070507368, -0.837201213004, -0.8378070507368, 1.049091110142e-15, 0.8376350512446, 0.8374687960033, 0, -0.8376350512446, -0.8374687960033, -0, -0, -0, -0, -0.001680137678006, 0.3171676887013, 0.3238665979672, 0, 0.3171676887013, 0.3238665979672
1.15, -0.04439660731392, 0.02556200170227, 0.04439660731392, -0.02556200170228, -3.967493442293e-15, -3.140616100311e-16, 0, 298.1295369169, -21.44736691483, 298.1295369169, -21.44736691483, 66.75171233374, -23.0361972723, -66.75171233374, 23.0361972723, 4511.381203224, 2715.354456274, 4511.381203224, 2715.354456274, 6, 0, 1.055975348216e-15, -0.03533443796647, -0, -0, -0, -0, -0, 1.117754944442e-15, 0, 0, 0, 0, 0, 1.117755156995e-15, -0.07876798370649, 0.06010014978363, 0.07876798370649, -0.06010014978362, 18.75993689882, 18.72226583827, 18.75993689882, 18.72226583827, 38.24209341898, 0.04433181714917, -0.04433181714917, -1.160660344807e-13, 1, 119.8135211941, 120, 119.8134656339, 38.2418303868, 35.33196944227, 38.2418303868, 35.33196944227, 38.24209341898, 38.2418300498, 35.33196929119, 54.88285253481, 38.2418300498, 35.33196929119, 2.642021148383e-15, 0, 0.04428324916184, -0.02547992586508, -0.04428324916183, 0.02547992586509, 0.8371995051682, 0.8378083545397, -0.8371995051682, -0.8378083545397, 1.055975348216e-15, 0.8376355329113, 0.8374686346718, 0, -0.8376355329113, -0.8374686346718, 5.551115123126e-17, -0, 5.551115123126e-17, -0, -0.001651701901403, 0.3171661883306, 0.3238679022132, 0, 0.3171661883306, 0.3238679022132
1.175, -0.04459911202583, 0.02563366400834, 0.04459911202583, -0.02563366400833, -3.399905990237e-15, -3.93074075706e-16, 0, 296.3011838563, -21.4093532716, 296.3011838563, -21.4093532716, 67.06783723486, -23.10289187124, -67.06783723487, 23.10289187124, 4511.772418629, 2715.010013574, 4511.772418629, 2715.010013574, 6, 0, 1.060908600603e-15, -0.03597754712582, -0, -0, -0, -0, -0, 1.014908093116e-15, 0, 0, 0, 0, 0, 1.014908293201e-15, -0.07912972942093, 0.06031119819688, 0.07912972942093, -0.06031119819688, 19.16843315747, 19.1296094223, 19.16843315747, 19.1296094223, 39.07416057088, 0.0445452153701, -0.0445452153701, -1.146380382723e-13, 1, 119.8201425587, 120, 119.8200940949, 39.0738934881, 36.16403323655, 39.0738934881, 36.16403323655, 39.07416057088, 39.07389314793, 36.16403308443, 55.71584030628, 39.07389314793, 36.16403308443, 2.548100235261e-15, 0, 0.04449553646266, -0.02556768362129, -0.04449553646266, 0.02556768362128, 0.8371979431899, 0.8378094172989, -0.8371979431899, -0.8378094172989, 1.060908600603e-15, 0.8376359713926, 0.8374685031144, 0, -0.8376359713926, -0.8374685031144, -0, -0, -0, -0, -0.001625819178123, 0.3171647258138, 0.3238691861929, 0, 0.3171647258138, 0.3238691861929
