Time,Alpha_L1,Alpha_L2,Alpha_R1,Alpha_R2,AVz,Ay,Bk_Stat,Fx_L1,Fx_L2,Fx_R1,Fx_R2,Fy_L1,Fy_L2,Fy_R1,Fy_R2,Fz_L1,Fz_L2,Fz_R1,Fz_R2,GearStat,Lat_Targ,Lat_Veh,Pitch,PitchGL1,PitchGL2,PitchGR1,PitchGR2,PitchO1,Roll,RollGL1,RollGL2,RollGR1,RollGR2,RollO_1,Roll_E,Roll_L1,Roll_L2,Roll_R1,Roll_R2,Rot_L1,Rot_L2,Rot_R1,Rot_R2,Station,Steer_L1,Steer_R1,Steer_SW,VisO_1,Vx,VxTarget,Vxz_Fwd,Xctc_L1,Xctc_L2,Xctc_R1,Xctc_R2,Xo,X_L1,X_L2,X_Obj_1,X_R1,X_R2,Yaw,YawO_1,Yaw_L1,Yaw_L2,Yaw_R1,Yaw_R2,Yctc_L1,Yctc_L2,Yctc_R1,Yctc_R2,Yo,Y_L1,Y_L2,Y_Obj_1,Y_R1,Y_R2,Zgnd_L1,Zgnd_L2,Zgnd_R1,Zgnd_R2,Zo,Z_L1,Z_L2,Z_Obj_1,Z_R1,Z_R2
            0, 8.3638332774e-18,             0, -8.3638332774e-18,             0,             0, 2.43290216361e-20,             0, -2.62932384198e-11,             0, -2.62932384198e-11,             0, -3.29522234563e-19,             0, 3.29522234563e-19,             0, 4705.65869141, 2654.82568359, 4705.65869141, 2654.82568359,             6,             0,             0, 0.15066960454,             0,             0,             0,             0,             0,             0,             0,             0,             0,             0,             0,             0, 3.18054370716e-15,             0, -3.18054370716e-15,             0, 0.000418526673457, 0.000418526673457, 0.000418526673457, 0.000418526673457,             0,             0,             0,             0,             1,           120,           120,           120, 0.000854645215441, -2.90913534164, 0.000854645215441, -2.90913534164,             0, 0.000854645215441, -2.90913534164, 16.6666660309, 0.000854645215441, -2.90913534164,             0,             0, -3.19527085726e-15,             0, 3.19527085726e-15,             0, 0.837499976158, 0.837499976158, -0.837499976158, -0.837499976158,             0, 0.837499976158, 0.837499976158,             0, -0.837499976158, -0.837499976158,             0,             0,             0,             0, -0.00855730380863, 0.316441565752, 0.324093937874,             0, 0.316441565752, 0.324093937874
        0.025, -0.000473907683045, 0.000351640221197, 0.000473907683045, -0.000351640221197, 4.22900595971e-15, -3.87795029599e-16,             0, -29.3096446991, -14.5853490829, -29.3096446991, -14.5853490829, 0.378942668438, -0.212471067905, -0.378942668438, 0.212471067905, 4687.87597656, 2659.39819336, 4687.87597656, 2659.39819336,             6,             0, -8.72196401874e-19, 0.147930666804,             0,             0,             0,             0,             0, -6.26027029716e-17,             0,             0,             0,             0,             0, -6.26029081124e-17, -0.000508817785885, 0.000366016232874, 0.000508817785885, -0.000366016232874, 0.408385545015, 0.408398389816, 0.408385545015, 0.408398389816, 0.833254039288, 0.000291915959679, -0.000291915959679, -5.41817330205e-16,             1, 119.969467163,           120, 119.969047546, 0.834090471268, -2.07589817047, 0.834090471268, -2.07589817047, 0.833254039288, 0.834090471268, -2.07589817047, 17.4956226349, 0.834090471268, -2.07589817047, 3.42504389667e-17,             0, 0.000293230637908, -0.000158679395099, -0.000293230637908, 0.000158679395099, 0.837498307228, 0.837501943111, -0.837498307228, -0.837501943111, -8.72196401874e-19, 0.837501168251, 0.837499856949,             0, -0.837501168251, -0.837499856949,             0,             0,             0,             0, -0.00844954978675, 0.316507935524, 0.324076861143,             0, 0.316507935524, 0.324076861143
         0.05, -0.00137866195291, 0.000835700309835, 0.00137866195291, -0.000835700309835, 1.06323175429e-14, -3.28473183017e-16,             0, -38.3645591736, -14.7300434113, -38.3645591736, -14.7300434113, 1.32748413086, -0.577137649059, -1.32748413086, 0.577137649059, 4637.89257812, 2669.24316406, 4637.89257812, 2669.24316406,             6,             0, -2.7840446828e-18, 0.140965685248,             0,             0,             0,             0,             0, -2.66133569802e-16,             0,             0,             0,             0,             0, -2.66134390365e-16, -0.00175377528649, 0.00111382990144, 0.00175377528649, -0.00111382990144, 0.816214621067, 0.816256225109, 0.816214621067, 0.816256225109, 1.66632604599, 0.0009680337389, -0.0009680337389, -3.79981267127e-15,             1, 119.937217712,           120, 119.936546326, 1.66712105274, -1.24286556244, 1.66712105274, -1.24286556244, 1.66632604599, 1.66712105274, -1.24286556244, 18.3241786957, 1.66712105274, -1.24286556244, 2.20319000288e-16,             0, 0.000972351524979, -0.000481937546283, -0.000972351524979, 0.000481937546283, 0.837494254112, 0.837505817413, -0.837494254112, -0.837505817413, -2.7840446828e-18, 0.837503969669, 0.837499499321,             0, -0.837503969669, -0.837499499321,             0,             0,             0,             0, -0.00816167332232, 0.316694438457, 0.324040144682,             0, 0.316694438457, 0.324040144682
        0.075, -0.00294323405251, 0.00131223071367, 0.00294323405251, -0.00131223071367, 1.48188515766e-14, -2.72331521635e-16,             0, -47.4814109802, -14.3685350418, -47.4814109802, -14.3685350418, 3.15632820129, -1.03302288055, -3.15632820129, 1.03302288055, 4583.73291016,  2672.1965332, 4583.73291016,  2672.1965332,             6,             0, -4.56912236498e-18, 0.132169917226,             0,             0,             0,             0,             0, -5.45876894424e-16,             0,             0,             0,             0,             0, -5.45878376731e-16, -0.00412413105369, 0.0021660940256, 0.00412413105369, -0.0021660940256, 1.22390079498, 1.22400701046, 1.22390079498, 1.22400701046, 2.49918651581, 0.00225503533147, -0.00225503533147, -9.75233755513e-15,             1,  119.90385437,           120, 119.903160095, 2.49992847443, -0.410054683685, 2.49992847443, -0.410054683685, 2.49918651581, 2.49992847443, -0.410054683685, 19.1524028778, 2.49992847443, -0.410054683685, 5.50568609919e-16,             0, 0.00226455484517, -0.000935769581702, -0.00226455484517, 0.000935769581702, 0.837486386299, 0.837511360645, -0.837486386299, -0.837511360645, -4.56912236498e-18, 0.837509214878, 0.837499082088,             0, -0.837509214878, -0.837499082088,             0,             0,             0,             0, -0.0077668717131, 0.316896528006, 0.324029117823,             0, 0.316896528006, 0.324029117823
          0.1, -0.00498774740845, 0.00142637442332, 0.00498774740845, -0.00142637442332, 1.9813482994e-14, 4.04225562951e-17,             0, -52.8676643372, -14.0513057709, -52.8676643372, -14.0513057709, 5.82435798645, -1.27466154099, -5.82435798645, 1.27466154099, 4545.59228516, 2664.19067383, 4545.59228516, 2664.19067383,             6,             0, -6.33535894075e-18, 0.123964302242,             0,             0,             0,             0,             0, -8.99530355259e-16,             0,             0,             0,             0,             0, -8.99532472842e-16, -0.00750465178862, 0.00294563779607, 0.00750465178862, -0.00294563779607, 1.63144373894, 1.63164365292, 1.63144373894, 1.63164365292, 3.33180689812, 0.00409403117374, -0.00409403117374, -1.74421481896e-14,             1, 119.869659424,           120, 119.869102478,   3.332498312, 0.422519385815,   3.332498312, 0.422519385815, 3.33180689812,   3.332498312, 0.422519385815, 19.9802932739,   3.332498312, 0.422519385815, 9.75416248762e-16,             0, 0.00411027763039, -0.00127049454022, -0.00411027763039, 0.00127049454022, 0.837475061417, 0.837515413761, -0.837475061417, -0.837515413761, -6.33535894075e-18, 0.837516546249, 0.837498724461,             0, -0.837516546249, -0.837498724461, 5.55111512313e-17,             0, 5.55111512313e-17,             0, -0.00735045783222, 0.317038834095, 0.32405897975,             0, 0.317038834095, 0.32405897975
        0.125, -0.00720243761316, 0.00106633512769, 0.00720243761316, -0.00106633512769, 2.3865182088e-14, 1.51899556632e-16,             0, -53.8701667786, -13.8943767548, -53.8701667786, -13.8943767548, 8.98311042786, -1.11165595055, -8.98311042786, 1.11165595055, 4529.61279297, 2650.64868164, 4529.61279297, 2650.64868164,             6,             0, -4.93971540942e-18, 0.117597311735,             0,             0,             0,             0,             0, -1.20047184406e-15,             0,             0,             0,             0,             0, -1.20047438516e-15, -0.0114121204242, 0.00291112205014, 0.0114121204242, -0.00291112205014, 2.03885483742, 2.03916120529, 2.03885483742, 2.03916120529, 4.16417217255, 0.00622722040862, -0.00622722040862, -2.78084592707e-14,             1, 119.835128784,           120, 119.834754944, 4.16482305527, 1.25484788418, 4.16482305527, 1.25484788418, 4.16417217255, 4.16482305527, 1.25484788418,  20.807888031, 4.16482305527, 1.25484788418, 1.5336043965e-15,             0, 0.00625065667555, -0.00125360337552, -0.00625065667555, 0.00125360337552, 0.837461709976, 0.837515234947, -0.837461709976, -0.837515234947, -4.93971540942e-18,  0.8375248909, 0.837498784065,             0, -0.8375248909, -0.837498784065, 5.55111512313e-17,             0, 5.55111512313e-17,             0, -0.00697513250634, 0.317098468542, 0.324109524488,             0, 0.317098468542, 0.324109524488
         0.15, -0.00931101385504, 0.000415144982981, 0.00931101385504, -0.000415144982981, 2.54509903956e-14, 3.01983339322e-16,             0, -51.1897773743, -13.9114332199, -51.1897773743, -13.9114332199, 12.2058773041, -0.61563795805, -12.2058773041, 0.61563795805, 4531.54785156, 2640.03613281, 4531.54785156, 2640.03613281,             6,             0, -8.33039636229e-19, 0.113021865487,             0,             0,             0,             0,             0, -1.42105468187e-15,             0,             0,             0,             0,             0, -1.42105743473e-15, -0.015316802077, 0.00200788583606, 0.015316802077, -0.00200788583606, 2.44614839554, 2.44655823708, 2.44614839554, 2.44655823708, 4.99628210068, 0.00836767349392, -0.00836767349392, -3.94818421392e-14,             1, 119.800727844,           120, 119.800476074, 4.99690294266, 2.08693027496, 4.99690294266, 2.08693027496, 4.99628210068, 4.99690294266, 2.08693027496, 21.6352367401, 4.99690294266, 2.08693027496, 2.15204771524e-15,             0, 0.00839790422469, -0.000862891029101, -0.00839790422469, 0.000862891029101, 0.837448179722, 0.83751052618, -0.837448179722, -0.83751052618, -8.33039636229e-19, 0.837532997131, 0.837499141693,             0, -0.837532997131, -0.837499141693,             0,             0,             0,             0, -0.00666808476672, 0.317091226578, 0.324149131775,             0, 0.317091226578, 0.324149131775
        0.175, -0.011154782027, -0.000214787491132, 0.011154782027, 0.000214787491132, 2.40151712942e-14, 1.32631423201e-16,             0, -46.0085601807, -14.0546112061, -46.0085601807, -14.0546112061, 15.1519908905, -0.0309623647481, -15.1519908905, 0.0309623647481, 4542.87158203, 2637.31347656, 4542.87158203, 2637.31347656,             6,             0, 5.43664374882e-18, 0.109501004219,             0,             0,             0,             0,             0, -1.57668057467e-15,             0,             0,             0,             0,             0, -1.5766834334e-15, -0.0188487861305, 0.000665338244289, 0.0188487861305, -0.000665338244289, 2.85333776474, 2.85383653641, 2.85333776474, 2.85383653641,   5.828145504, 0.0103114657104, -0.0103114657104, -5.12990359555e-14,             1, 119.766822815,           120, 119.766616821, 5.82874202728, 2.91877126694, 5.82874202728, 2.91877126694,   5.828145504, 5.82874202728, 2.91877126694, 22.4623966217, 5.82874202728, 2.91877126694, 2.76915759237e-15,             0, 0.010347507894, -0.000284004257992, -0.010347507894, 0.000284004257992, 0.837435781956, 0.837503492832, -0.837435781956, -0.837503492832, 5.43664374882e-18, 0.837540090084, 0.83749973774,             0, -0.837540090084, -0.83749973774,             0,             0,             0,             0, -0.00642710132524, 0.317048966885, 0.324159264565,             0, 0.317048966885, 0.324159264565
          0.2, -0.0126989232376, -0.000588984927163, 0.0126989232376, 0.000588984927163, 2.81085105278e-14, 4.63437877585e-16,             0, -39.5801086426, -14.2539024353, -39.5801086426, -14.2539024353, 17.6414909363, 0.40279096365, -17.6414909363, -0.40279096365, 4555.75976562, 2641.84912109, 4555.75976562, 2641.84912109,             6,             0, 1.39371247819e-17, 0.106291510165,             0,             0,             0,             0,             0, -1.65229107658e-15,             0,             0,             0,             0,             0, -1.65229393532e-15, -0.0218588747084, -0.000535442028195, 0.0218588747084, 0.000535442028195, 3.26043272018, 3.26099920273, 3.26043272018, 3.26099920273, 6.65977239609, 0.0119737032801, -0.0119737032801, -6.3643955015e-14,             1, 119.733612061,           120, 119.733398438, 6.66034793854, 3.75037837029, 6.66034793854, 3.75037837029, 6.65977239609, 6.66034793854, 3.75037837029, 23.2894115448, 6.66034793854, 3.75037837029, 3.41008582422e-15,             0, 0.0120142754167, 0.000232786580455, -0.0120142754167, -0.000232786580455, 0.837425112724, 0.83749717474, -0.837425112724, -0.83749717474, 1.39371247819e-17, 0.837546050549, 0.837500214577,             0, -0.837546050549, -0.837500214577, -5.55111512313e-17, -5.55111512313e-17, -5.55111512313e-17, -5.55111512313e-17, -0.00623459368944, 0.317000865936, 0.324142366648,             0, 0.317000865936, 0.324142366648
        0.225, -0.0139915151522, -0.000649258203339, 0.0139915151522, 0.000649258203339, 2.44335632185e-14, 4.66050921288e-16,             0, -31.8072776794, -14.4615306854, -31.8072776794, -14.4615306854, 19.6339454651, 0.57201641798, -19.6339454651, -0.57201641798, 4565.49316406, 2649.53100586, 4565.49316406, 2649.53100586,             6,             0, 2.54390728538e-17, 0.103000238538,             0,             0,             0,             0,             0, -1.64137059843e-15,             0,             0,             0,             0,             0, -1.64137324541e-15, -0.0243756584823, -0.00120492768474, 0.0243756584823, 0.00120492768474, 3.66743946075, 3.66804981232, 3.66743946075, 3.66804981232, 7.49117231369, 0.0133671257645, -0.0133671257645, -7.64977206471e-14,             1, 119.701210022,           120, 119.700965881, 7.49172687531, 4.58175849915, 7.49172687531, 4.58175849915, 7.49117231369, 7.49172687531, 4.58175849915, 24.1163063049, 7.49172687531, 4.58175849915, 4.06411956158e-15,             0, 0.0134109668434, 0.000520078756381, -0.0134109668434, -0.000520078756381, 0.837416052818, 0.837493658066, -0.837416052818, -0.837493658066, 2.54390728538e-17, 0.837550878525,  0.8375005126,             0, -0.837550878525, -0.8375005126,             0, -5.55111512313e-17,             0, -5.55111512313e-17, -0.00607030419633, 0.316964536905, 0.324113696814,             0, 0.316964536905, 0.324113696814
         0.25, -0.0151138361543, -0.000477091321955, 0.0151138361543, 0.000477091321955, 2.22843797451e-14, 4.60639121909e-16,             0, -22.9939136505, -14.6755056381, -22.9939136505, -14.6755056381, 21.1896533966, 0.499625980854, -21.1896533966, -0.499625980854, 4570.45703125, 2656.31762695, 4570.45703125, 2656.31762695,             6,             0, 3.89411221402e-17, 0.0995535925031,             0,             0,             0,             0,             0, -1.5121827215e-15,             0,             0,             0,             0,             0, -1.51218494496e-15, -0.0265222433954, -0.00127155368682, 0.0265222433954, 0.00127155368682, 4.07436752319, 4.07499170303, 4.07436752319, 4.07499170303, 8.32235240936, 0.0145579827949, -0.0145579827949, -8.81344557882e-14,             1, 119.669845581,           120, 119.669586182, 8.32288551331, 5.41291809082, 8.32288551331, 5.41291809082, 8.32235240936, 8.32288551331, 5.41291809082, 24.9431266785, 8.32288551331, 5.41291809082, 4.64619170909e-15,             0, 0.014604087919, 0.000547586183529, -0.014604087919, -0.000547586183529, 0.83740824461, 0.837493360043, -0.83740824461, -0.837493360043, 3.89411221402e-17, 0.837554991245,  0.8375005126,             0, -0.837554991245, -0.8375005126,             0,             0,             0,             0, -0.00591813586652, 0.316946029663, 0.32408836484,             0, 0.316946029663, 0.32408836484
        0.275, -0.0161418523639, -0.000167709949892, 0.0161418523639, 0.000167709949892, 1.9529913304e-14, 3.87984182644e-16,             0, 2.90630245209, -15.0939912796, 2.90630245209, -15.0939912796, 22.2336273193, 0.272213459015, -22.2336273193, -0.272213459015, 4570.99414062, 2660.49584961, 4570.99414062, 2660.49584961,             6,             0, 5.43540645206e-17, 0.0959836989641,             0,             0,             0,             0,             0, -1.31328138604e-15,             0,             0,             0,             0,             0, -1.31328329186e-15, -0.0284436624497, -0.000881256826688, 0.0284436624497, 0.000881256826688, 4.48124265671, 4.48182821274, 4.48124265671, 4.48182821274,  9.1533203125, 0.0156195405871, -0.0156195405871, -9.87993121018e-14,             1, 119.640220642,           120, 119.639938354, 9.15383243561,  6.2438659668, 9.15383243561,  6.2438659668,  9.1533203125, 9.15383243561,  6.2438659668, 25.7699775696, 9.15383243561,  6.2438659668, 5.16874835711e-15,             0, 0.015667213127, 0.000378599768737, -0.015667213127, -0.000378599768737, 0.837401211262,  0.8374953866, -0.837401211262, -0.8374953866, 5.43540645206e-17, 0.837558567524, 0.837500333786,             0, -0.837558567524, -0.837500333786,             0, 5.55111512313e-17,             0, 5.55111512313e-17, -0.00576764484867, 0.316944003105, 0.324072778225,             0, 0.316944003105, 0.324072778225
          0.3, -0.017143484205, 0.000285724905552, 0.017143484205, -0.000285724905552, 1.87535076579e-14, 4.08722910854e-16,             0, 53.5441589355, -16.0518016815, 53.5441589355, -16.0518016815, 24.7988986969, -0.0821437984705, -24.7988986969, 0.0821437984705, 4567.21679688,  2664.2878418, 4567.21679688,  2664.2878418,             6,             0, 7.18502447302e-17, 0.0919934734702,             0,             0,             0,             0,             0, -1.03008788446e-15,             0,             0,             0,             0,             0, -1.03008915501e-15, -0.0302789881825, -0.000135301786941, 0.0302789881825, 0.000135301786941, 4.88816452026,  4.8885679245, 4.88816452026,  4.8885679245,  9.9841003418, 0.0166225712746, -0.0166225712746, -1.08722411499e-13,             1, 119.615272522,           120,  119.61492157,  9.9845905304, 7.07462406158,  9.9845905304, 7.07462406158,  9.9841003418,  9.9845905304, 7.07462406158,  26.597284317,  9.9845905304, 7.07462406158, 5.64502100731e-15,             0, 0.0166712086648, 5.67571441934e-05, -0.0166712086648, -5.67571441934e-05, 0.837394475937, 0.837499260902, -0.837394475937, -0.837499260902, 7.18502447302e-17, 0.837561964989, 0.837500035763,             0, -0.837561964989, -0.837500035763, 5.55111512313e-17,             0, 5.55111512313e-17,             0, -0.00560811953619, 0.316958099604, 0.324058622122,             0, 0.316958099604, 0.324058622122
        0.325, -0.0181968547404, 0.000983158592135, 0.0181968547404, -0.000983158592135, 1.92912837939e-14, 4.61352270711e-16,             0, 109.795143127, -17.2380542755, 109.795143127, -17.2380542755, 26.6632766724, -0.622773766518, -26.6632766724, 0.622773766518, 4558.77001953, 2671.56494141, 4558.77001953, 2671.56494141,             6,             0, 9.24836629229e-17, 0.0870236605406,             0,             0,             0,             0,             0, -6.33497052982e-16,             0,             0,             0,             0,             0, -6.33497794136e-16, -0.0321526303887, 0.00103855074849, 0.0321526303887, -0.00103855074849, 5.29519987106, 5.29522943497, 5.29519987106, 5.29522943497, 10.8147382736, 0.0176475122571, -0.0176475122571, -1.1847974316e-13,             1, 119.596763611,           120, 119.596305847, 10.8152008057, 7.90523481369, 10.8152008057, 7.90523481369, 10.8147382736, 10.8152008057, 7.90523481369, 27.4253368378, 10.8152008057, 7.90523481369, 6.10223753377e-15,             0, 0.0176963675767, -0.000449137354735, -0.0176963675767, 0.000449137354735, 0.837387502193, 0.837505400181, -0.837387502193, -0.837505400181, 9.24836629229e-17, 0.837565422058, 0.837499558926,             0, -0.837565422058, -0.837499558926,             0,             0,             0,             0, -0.00542843248695, 0.316989600658, 0.324031472206,             0, 0.316989600658, 0.324031472206
         0.35, -0.0193574987352, 0.00202269293368, 0.0193574987352, -0.00202269293368, 1.70752507863e-14, 5.34940375586e-16,             0,  160.54196167,   -18.3548069,  160.54196167,   -18.3548069, 28.3839187622, -1.44950866699, -28.3839187622, 1.44950866699, 4546.63867188,  2682.9296875, 4546.63867188,  2682.9296875,             6,             0, 1.17295124067e-16, 0.0807865932584,             0,             0,             0,             0,             0, -1.0435612008e-16,             0,             0,             0,             0,             0, -1.0435622596e-16, -0.0341696552932, 0.00284133735113, 0.0341696552932, -0.00284133735113,  5.7023692131, 5.70183515549,  5.7023692131, 5.70183515549,  11.645280838, 0.0187575630844, -0.0187575630844, -1.2871161656e-13,             1, 119.584617615,           120,  119.58404541, 11.6457090378, 8.73574352264, 11.6457090378, 8.73574352264,  11.645280838, 11.6457090378, 8.73574352264, 28.2541770935, 11.6457090378, 8.73574352264, 6.56932622924e-15,             0, 0.0188057608902, -0.00122532679234, -0.0188057608902, 0.00122532679234, 0.837379932404, 0.837514877319, -0.837379932404, -0.837514877319, 1.17295124067e-16, 0.837568998337, 0.837498784065,             0, -0.837568998337, -0.837498784065,             0,             0,             0,             0, -0.00522401183844, 0.317034870386, 0.323989063501,             0, 0.317034870386, 0.323989063501
        0.375, -0.0206447932869, 0.00338531751186, 0.0206447932869, -0.00338531751186, 1.44170733565e-14, 2.93739220586e-16,             0, 201.358444214, -19.2587413788, 201.358444214, -19.2587413788, 30.2086982727, -2.5919778347, -30.2086982727,  2.5919778347, 4533.30615234,  2695.3449707, 4533.30615234,  2695.3449707,             6,             0, 1.45532396732e-16, 0.0735108703375,             0,             0,             0,             0,             0, 5.98234647872e-16,             0,             0,             0,             0,             0, 5.98235124328e-16, -0.0363875366747, 0.00539134209976, 0.0363875366747, -0.00539134209976, 6.10966587067, 6.10840559006, 6.10966587067, 6.10840559006, 12.4757680893, 0.0199872627854, -0.0199872627854, -1.37847564852e-13,             1, 119.577850342,           120, 119.577209473, 12.4761543274, 9.56619262695, 12.4761543274, 9.56619262695, 12.4757680893, 12.4761543274, 9.56619262695, 29.0837135315, 12.4761543274, 9.56619262695, 6.96507526879e-15,             0, 0.0200339648873, -0.0023216381669, -0.0200339648873, 0.0023216381669, 0.837371587753, 0.837528169155, -0.837371587753, -0.837528169155, 1.45532396732e-16, 0.837572932243, 0.837497711182,             0, -0.837572932243, -0.837497711182,             0,             0,             0,             0, -0.00499966926873, 0.317084610462, 0.323942750692,             0, 0.317084610462, 0.323942750692
          0.4, -0.0220372565091, 0.0049368175678, 0.0220372565091, -0.0049368175678, 1.02075542368e-14, 2.25832615674e-16,             0,  232.48223877, -19.9336395264,  232.48223877, -19.9336395264, 32.1887969971, -3.9634809494, -32.1887969971,  3.9634809494, 4521.58496094, 2705.09765625, 4521.58496094, 2705.09765625,             6,             0, 1.75702307415e-16, 0.0657757520676,             0,             0,             0,             0,             0, 1.44410350716e-15,             0,             0,             0,             0,             0, 1.44410446007e-15, -0.0387976020575, 0.00857939384878, 0.0387976020575, -0.00857939384878, 6.51707172394, 6.51495742798, 6.51707172394, 6.51495742798, 13.3062267303, 0.0213324688375, -0.0213324688375, -1.45365612451e-13,             1, 119.575294495,           120, 119.574638367, 13.3065690994, 10.3966112137, 13.3065690994, 10.3966112137, 13.3062267303, 13.3065690994, 10.3966112137,  29.913816452, 13.3065690994, 10.3966112137, 7.26569192045e-15,             0, 0.0213770233095, -0.00368967000395, -0.0213770233095, 0.00368967000395, 0.837362349033, 0.837544798851, -0.837362349033, -0.837544798851, 1.75702307415e-16, 0.837577104568, 0.83749628067,             0, -0.837577104568, -0.83749628067,             0,             0,             0,             0, -0.00476665934548, 0.317128330469, 0.323906362057,             0, 0.317128330469, 0.323906362057
        0.425, -0.0234849527478, 0.00651260185987, 0.0234849527478, -0.00651260185987, 1.33775665716e-14, 7.1005734353e-16,             0, 255.520629883, -20.4224090576, 255.520629883, -20.4224090576, 34.2961425781, -5.41256427765, -34.2961425781, 5.41256427765, 4513.29248047,  2710.4987793, 4513.29248047,  2710.4987793,             6,             0, 2.06793670831e-16, 0.0581662915647,             0,             0,             0,             0,             0, 2.27033120765e-15,             0,             0,             0,             0,             0, 2.27033226644e-15, -0.0413330122828, 0.0121147753671, 0.0413330122828, -0.0121147753671, 6.92456817627, 6.92150306702, 6.92456817627, 6.92150306702, 14.1366786957, 0.0227555762976, -0.0227555762976, -1.51945852276e-13,             1, 119.575889587,           120, 119.575263977, 14.1369762421, 11.2270240784, 14.1369762421, 11.2270240784, 14.1366786957, 14.1369762421, 11.2270240784,  30.744354248, 14.1369762421, 11.2270240784, 7.51530744781e-15,             0, 0.0227975491434, -0.00520352460444, -0.0227975491434, 0.00520352460444, 0.837352633476, 0.837563157082, -0.837352633476, -0.837563157082, 2.06793670831e-16, 0.837581396103, 0.837494671345,             0, -0.837581396103, -0.837494671345,             0, -5.55111512313e-17,             0, -5.55111512313e-17, -0.00453707948327, 0.31715926528, 0.323886185884,             0, 0.31715926528, 0.323886185884
         0.45, -0.0249308571219, 0.00800205022097, 0.0249308571219, -0.00800205022097, 1.45556462526e-14, 5.61768132487e-16,             0, 272.453735352, -20.782125473, 272.453735352, -20.782125473, 36.4617462158, -6.81111907959, -36.4617462158, 6.81111907959, 4508.72753906, 2712.37231445, 4508.72753906, 2712.37231445,             6,             0, 2.33163659363e-16, 0.0510280840099,             0,             0,             0,             0,             0, 1.78526677897e-15,             0,             0,             0,             0,             0, 1.78526741425e-15, -0.0438993535936, 0.0156853348017, 0.0438993535936, -0.0156853348017,  7.3321390152, 7.32805156708,  7.3321390152, 7.32805156708, 14.9671392441, 0.0242027472705, -0.0242027472705, -1.60867480903e-13,             1, 119.578811646,           120, 119.578231812, 14.9673948288, 12.0574483871, 14.9673948288, 12.0574483871, 14.9671392441, 14.9673948288, 12.0574483871, 31.5752277374, 14.9673948288, 12.0574483871, 7.90775475293e-15,             0, 0.0242418535054, -0.00672919349745, -0.0242418535054, 0.00672919349745, 0.837342679501, 0.837581694126, -0.837342679501, -0.837581694126, 2.33163659363e-16, 0.837585687637, 0.837493002415,             0, -0.837585687637, -0.837493002415,             0,             0,             0,             0, -0.00431947316974, 0.317176312208, 0.323879182339,             0, 0.317176312208, 0.323879182339
        0.475, -0.0263295732439, 0.00937620550394, 0.0263295732439, -0.00937620550394, 1.06450221901e-14, 7.7855493921e-16,             0, 284.973876953, -21.0569133759, 284.973876953, -21.0569133759, 38.6085624695, -8.10471439362, -38.6085624695, 8.10471439362, 4507.00878906, 2712.77392578, 4507.00878906, 2712.77392578,             6,             0, 2.61501728949e-16, 0.0444294624031,             0,             0,             0,             0,             0, 1.18952182563e-15,             0,             0,             0,             0,             0, 1.18952224915e-15, -0.0464092865586, 0.0190932806581, 0.0464092865586, -0.0190932806581, 7.73977375031, 7.73461008072, 7.73977375031, 7.73461008072,  15.797621727, 0.0256236735731, -0.0256236735731, -1.68573312319e-13,             1, 119.583450317,           120,  119.58290863, 15.7978382111, 12.8878965378, 15.7978382111, 12.8878965378,  15.797621727, 15.7978382111, 12.8878965378, 32.4063568115, 15.7978382111, 12.8878965378, 8.22580291913e-15,             0, 0.0256596691906, -0.00818254519254, -0.0256596691906, 0.00818254519254, 0.837332904339, 0.837599277496, -0.837332904339, -0.837599277496, 2.61501728949e-16, 0.837589800358, 0.837491393089,             0, -0.837589800358, -0.837491393089,             0,             0,             0,             0, -0.00411737011746, 0.317182689905, 0.323877692223,             0, 0.317182689905, 0.323877692223
          0.5, -0.0276558790356, 0.0106616448611, 0.0276558790356, -0.0106616448611, 6.44828183295e-15, 4.59050141039e-16,             0, 294.434295654, -21.2741012573, 294.434295654, -21.2741012573, 40.6766662598, -9.30352210999, -40.6766662598, 9.30352210999, 4506.82861328, 2713.40844727, 4506.82861328, 2713.40844727,             6,             0, 3.01538223508e-16, 0.0382744967937,             0,             0,             0,             0,             0, 1.6670246853e-15,             0,             0,             0,             0,             0, 1.66702510882e-15, -0.0488047525287, 0.0222884677351, 0.0488047525287, -0.0222884677351, 8.14746284485, 8.14118480682, 8.14746284485, 8.14118480682, 16.6281356812, 0.0269843470305, -0.0269843470305, -1.75149012047e-13,             1, 119.589355469,           120, 119.588844299, 16.6283168793,  13.718380928, 16.6283168793,  13.718380928, 16.6281356812, 16.6283168793,  13.718380928, 33.2376976013, 16.6283168793,  13.718380928, 8.44206059496e-15,             0, 0.0270169563591, -0.00954287592322, -0.0270169563591, 0.00954287592322, 0.837323486805, 0.837615787983, -0.837323486805, -0.837615787983, 3.01538223508e-16, 0.83759367466, 0.837489783764,             0, -0.83759367466, -0.837489783764, -5.55111512313e-17,             0, -5.55111512313e-17,             0, -0.00393036939204, 0.317183345556, 0.323875308037,             0, 0.317183345556, 0.323875308037
        0.525, -0.0289031099528, 0.0118956081569, 0.0289031099528, -0.0118956081569, 2.03281152253e-15, 4.01746456333e-16,             0, 301.792663574, -21.4481201172, 301.792663574, -21.4481201172, 42.6338310242, -10.4418449402, -42.6338310242, 10.4418449402, 4507.09082031, 2714.85302734, 4507.09082031, 2714.85302734,             6,             0, 3.44004537956e-16, 0.0324432104826,             0,             0,             0,             0,             0, 2.35118219653e-15,             0,             0,             0,             0,             0, 2.35118262004e-15, -0.0510613285005, 0.0253137014806, 0.0510613285005, -0.0253137014806, 8.55520343781, 8.54777812958, 8.55520343781, 8.54777812958, 17.4586925507, 0.0282698515803, -0.0282698515803, -1.7969809397e-13,             1, 119.596229553,           120, 119.595748901, 17.4588375092, 14.5489082336, 17.4588375092, 14.5489082336, 17.4586925507, 17.4588375092, 14.5489082336, 34.0692138672, 17.4588375092, 14.5489082336, 8.5390221505e-15,             0, 0.0282987691462, -0.0108289821073, -0.0282987691462, 0.0108289821073, 0.837314546108,  0.8376314044, -0.837314546108, -0.8376314044, 3.44004537956e-16, 0.837597191334, 0.837488293648,             0, -0.837597191334, -0.837488293648,             0, -5.55111512313e-17,             0, -5.55111512313e-17, -0.00375621416606, 0.31718236208, 0.323869913816,             0, 0.31718236208, 0.323869913816
         0.55, -0.0300760213286, 0.0130956675857, 0.0300760213286, -0.0130956675857, -9.89713317879e-16, 6.58232373806e-16,             0,  307.65234375, -21.5866394043,  307.65234375, -21.5866394043, 44.4727401733, -11.5430698395, -44.4727401733, 11.5430698395, 4507.19042969, 2716.74511719, 4507.19042969, 2716.74511719,             6,             0, 3.76360825965e-16, 0.0268722269684,             0,             0,             0,             0,             0, 1.74192124433e-15,             0,             0,             0,             0,             0, 1.74192145608e-15, -0.0531796254218, 0.0282257571816, 0.0531796254218, -0.0282257571816, 8.96298980713, 8.95439624786, 8.96298980713, 8.95439624786, 18.2892971039, 0.0294797029346, -0.0294797029346, -1.82034278601e-13,             1, 119.603874207,           120, 119.603408813, 18.2894096375, 15.3794851303, 18.2894096375, 15.3794851303, 18.2892971039, 18.2894096375, 15.3794851303, 34.9008827209, 18.2894096375, 15.3794851303, 8.55196735503e-15,             0, 0.0295046493411, -0.0120653193444, -0.0295046493411, 0.0120653193444, 0.837306082249, 0.837646365166, -0.837306082249, -0.837646365166, 3.76360825965e-16, 0.837600469589, 0.837486803532,             0, -0.837600469589, -0.837486803532, -5.55111512313e-17,             0, -5.55111512313e-17,             0, -0.00359253352508, 0.317181974649, 0.323862850666,             0, 0.317181974649, 0.323862850666
        0.575, -0.0311833247542, 0.0142551586032, 0.0311833247542, -0.0142551586032, -7.10541084046e-15, 2.37190083418e-16,             0, 312.358276367, -21.6952514648, 312.358276367, -21.6952514648, 46.2011413574, -12.6078605652, -46.2011413574, 12.6078605652, 4506.96923828, 2718.43188477, 4506.96923828, 2718.43188477,             6,             0, 4.13259116394e-16, 0.0215605590492,             0,             0,             0,             0,             0, 1.40143655178e-15,             0,             0,             0,             0,             0, 1.40143665766e-15, -0.0551725141704, 0.0310462228954, 0.0551725141704, -0.0310462228954, 9.37082195282, 9.36103916168, 9.37082195282, 9.36103916168, 19.1199550629, 0.0306206233799, -0.0306206233799, -1.82973902414e-13,             1, 119.612129211,           120, 119.611686707, 19.1200351715, 16.2101154327, 19.1200351715, 16.2101154327, 19.1199550629, 19.1200351715, 16.2101154327, 35.7326889038, 19.1200351715, 16.2101154327, 8.47338810852e-15,             0, 0.0306413881481, -0.0132611906156, -0.0306413881481, 0.0132611906156, 0.837298035622, 0.837660849094, -0.837298035622, -0.837660849094, 4.13259116394e-16, 0.837603509426, 0.83748537302,             0, -0.837603509426, -0.83748537302,             0, -5.55111512313e-17,             0, -5.55111512313e-17, -0.00343767250888, 0.317182809114, 0.323856562376,             0, 0.317182809114, 0.323856562376
          0.6, -0.0322328694165, 0.0153558589518, 0.0322328694165, -0.0153558589518, -9.81230325264e-15, 1.34571644811e-16,             0, 316.098876953, -21.7792510986, 316.098876953, -21.7792510986,  47.831741333, -13.6221055984, -47.831741333, 13.6221055984, 4506.51708984, 2719.50952148, 4506.51708984, 2719.50952148,             6,             0, 4.59443746662e-16, 0.016534363851,             0,             0,             0,             0,             0, 2.1964519352e-15,             0,             0,             0,             0,             0, 2.1964519352e-15, -0.0570548251271, 0.0337572284043, 0.0570548251271, -0.0337572284043, 9.77869796753, 9.76770973206, 9.77869796753, 9.76770973206, 19.9506702423, 0.0317006446421, -0.0317006446421, -1.81965621499e-13,             1, 119.620864868,           120, 119.620452881, 19.9507198334, 17.0408058167, 19.9507198334, 17.0408058167, 19.9506702423, 19.9507198334, 17.0408058167, 36.5646209717, 19.9507198334, 17.0408058167, 8.25857462386e-15,             0, 0.0317171104252, -0.014409115538, -0.0317171104252, 0.014409115538, 0.837290465832, 0.837674736977, -0.837290465832, -0.837674736977, 4.59443746662e-16, 0.837606310844, 0.837483882904,             0, -0.837606310844, -0.837483882904, 5.55111512313e-17,             0, 5.55111512313e-17,             0, -0.00329076196067, 0.317184478045, 0.32385250926,             0, 0.317184478045, 0.32385250926
        0.625, -0.0332298725843, 0.0163828469813, 0.0332298725843, -0.0163828469813, -1.42643211289e-14, 2.10305575309e-16,             0, 318.986297607, -21.8434314728, 318.986297607, -21.8434314728, 49.3757591248, -14.5710630417, -49.3757591248, 14.5710630417, 4505.98828125, 2719.97851562, 4505.98828125, 2719.97851562,             6,             0, 4.98468989762e-16, 0.0118122510612,             0,             0,             0,             0,             0, 2.23551180077e-15,             0,             0,             0,             0,             0, 2.23551180077e-15, -0.0588381253183, 0.0363247096539, 0.0588381253183, -0.0363247096539, 10.1866149902, 10.1744098663, 10.1866149902, 10.1744098663, 20.7814426422, 0.0327260196209, -0.0327260196209, -1.78967558546e-13,             1, 119.629989624,           120, 119.629600525, 20.7814655304, 17.8715553284, 20.7814655304, 17.8715553284, 20.7814426422, 20.7814655304, 17.8715553284, 37.3966636658, 20.7814655304, 17.8715553284, 7.95877493548e-15,             0, 0.0327381491661, -0.0154948299751, -0.0327381491661, 0.0154948299751, 0.837283194065, 0.837687849998, -0.837283194065, -0.837687849998, 4.98468989762e-16, 0.837608933449, 0.837482511997,             0, -0.837608933449, -0.837482511997,             0,             0,             0,             0, -0.00315144238994, 0.317186444998, 0.323850750923,             0, 0.317186444998, 0.323850750923
         0.65, -0.0341770909727, 0.017331648618, 0.0341770909727, -0.017331648618, -1.39507884953e-14, 2.45355031043e-16,             0, 321.105682373, -21.8914108276, 321.105682373, -21.8914108276, 50.8406600952, -15.4483499527, -50.8406600952, 15.4483499527,  4505.5078125, 2720.08935547,  4505.5078125, 2720.08935547,             6,             0, 5.31026395155e-16, 0.00739240413532,             0,             0,             0,             0,             0, 1.43110769241e-15,             0,             0,             0,             0,             0, 1.43110769241e-15, -0.0605295710266, 0.0387231744826, 0.0605295710266, -0.0387231744826, 10.5945730209, 10.5811395645, 10.5945730209, 10.5811395645, 21.6122779846, 0.0337005406618, -0.0337005406618, -1.74559612641e-13,             1, 119.639404297,           120, 119.639038086, 21.6122741699, 18.7023677826, 21.6122741699, 18.7023677826, 21.6122779846, 21.6122741699, 18.7023677826, 38.2288131714, 21.6122741699, 18.7023677826, 7.60860897398e-15,             0, 0.0337083488703, -0.0165077969432, -0.0337083488703, 0.0165077969432, 0.837276279926, 0.837700068951, -0.837276279926, -0.837700068951, 5.31026395155e-16, 0.837611377239, 0.837481200695,             0, -0.837611377239, -0.837481200695, 5.55111512313e-17, 5.55111512313e-17, 5.55111512313e-17, 5.55111512313e-17, -0.00301958643831, 0.317188233137, 0.323850333691,             0, 0.317188233137, 0.323850333691
        0.675, -0.0350756719708, 0.0182066746056, 0.0350756719708, -0.0182066746056, -1.09081080824e-14, -1.48117395703e-16,             0, 322.537628174, -21.925491333, 322.537628174, -21.925491333, 52.2305145264, -16.2564754486, -52.2305145264, 16.2564754486,  4505.1484375, 2720.10302734,  4505.1484375, 2720.10302734,             6,             0, 5.75195881102e-16, 0.00325919594616,             0,             0,             0,             0,             0, 1.65597746985e-15,             0,             0,             0,             0,             0, 1.65597746985e-15, -0.0621328949928, 0.0409463346004, 0.0621328949928, -0.0409463346004, 11.0025682449, 10.9879016876, 11.0025682449, 10.9879016876, 22.4431781769, 0.0346260555089, -0.0346260555089, -1.71661011686e-13,             1, 119.649009705,           120, 119.648674011, 22.4431495667,  19.533246994, 22.4431495667,  19.533246994, 22.4431781769, 22.4431476593,  19.533246994,  39.061050415, 22.4431476593,  19.533246994, 7.30202201059e-15,             0, 0.0346295870841, -0.0174456313252, -0.0346295870841, 0.0174456313252, 0.837269663811, 0.837711393833, -0.837269663811, -0.837711393833, 5.75195881102e-16, 0.837613642216, 0.837479948997,             0, -0.837613642216, -0.837479948997,             0,             0,             0,             0, -0.00289514660835, 0.317189544439, 0.323850274086,             0, 0.317189544439, 0.323850274086
          0.7, -0.0359259657562, 0.019015526399, 0.0359259657562, -0.019015526399, -1.01045270783e-14, -9.33796848147e-17,             0, 323.363525391, -21.9471073151, 323.363525391, -21.9471073151, 53.5472068787, -17.0022029877, -53.5472068787, 17.0022029877, 4504.94580078, 2720.14819336, 4504.94580078, 2720.14819336,             6,             0, 6.23600955301e-16, -0.000604319793638,             0,             0,             0,             0,             0, 2.35042558435e-15,             0,             0,             0,             0,             0, 2.35042558435e-15, -0.0636497884989, 0.0430030636489, 0.0636497884989, -0.0430030636489, 11.4106006622,  11.394695282, 11.4106006622,  11.394695282, 23.2741413116, 0.0355032607913, -0.0355032607913, -1.69449469647e-13,             1, 119.658752441,           120, 119.658432007, 23.2740898132, 20.3641910553, 23.2740898132, 20.3641910553, 23.2741413116, 23.2740898132, 20.3641910553, 39.8933677673, 23.2740898132, 20.3641910553, 7.01532761597e-15,             0, 0.0355025865138, -0.018312336877, -0.0355025865138, 0.018312336877, 0.837263405323, 0.837721884251, -0.837263405323, -0.837721884251, 6.23600955301e-16, 0.837615787983, 0.837478816509,             0, -0.837615787983, -0.837478816509,             0,             0,             0,             0, -0.00277809402905,  0.3171903193, 0.323850095272,             0,  0.3171903193, 0.323850095272
        0.725, -0.0367280729115, 0.019764283672, 0.0367280729115, -0.019764283672, -1.15954931068e-14, 1.02168584702e-16,             0, 323.664001465, -21.9574451447, 323.664001465, -21.9574451447, 54.7915344238, -17.6917228699, -54.7915344238, 17.6917228699, 4504.91015625, 2720.21679688, 4504.91015625, 2720.21679688,             6,             0, 6.59890017284e-16, -0.00420914310962,             0,             0,             0,             0,             0, 1.68036852472e-15,             0,             0,             0,             0,             0, 1.68036852472e-15, -0.0650810301304, 0.0449072420597, 0.0650810301304, -0.0449072420597, 11.8186683655, 11.8015222549, 11.8186683655, 11.8015222549, 24.1051712036, 0.0363323353231, -0.0363323353231, -1.67080908028e-13,             1, 119.668548584,           120, 119.668251038,  24.105096817, 21.1952037811,  24.105096817, 21.1952037811, 24.1051712036,  24.105096817, 21.1952037811, 40.7257614136,  24.105096817, 21.1952037811, 6.76104536059e-15,             0, 0.0363275557756, -0.0191139802337, -0.0363275557756, 0.0191139802337, 0.837257504463, 0.837731540203, -0.837257504463, -0.837731540203, 6.59890017284e-16, 0.837617754936, 0.837477743626,             0, -0.837617754936, -0.837477743626,             0, -5.55111512313e-17,             0, -5.55111512313e-17, -0.00266838097014, 0.317190438509, 0.323849827051,             0, 0.317190438509, 0.323849827051
         0.75, -0.0374822244048, 0.020456019789, 0.0374822244048, -0.020456019789, -1.75989136594e-14, -2.7592921467e-16,             0, 323.515716553, -21.9578380585, 323.515716553, -21.9578380585, 55.9639320374, -18.3285675049, -55.9639320374, 18.3285675049, 4505.03222656, 2720.24145508, 4505.03222656, 2720.24145508,             6,             0, 6.95392662114e-16, -0.00756098004058,             0,             0,             0,             0,             0, 1.17275946712e-15,             0,             0,             0,             0,             0, 1.172759573e-15, -0.0664272606373, 0.0466699302197, 0.0664272606373, -0.0466699302197, 12.2267694473, 12.2083816528, 12.2267694473, 12.2083816528, 24.9362659454, 0.0371134132147, -0.0371134132147, -1.62612219697e-13,             1, 119.678344727,           120, 119.678070068, 24.9361724854, 22.0262813568, 24.9361724854, 22.0262813568, 24.9362659454, 24.9361724854, 22.0262813568, 41.5582199097, 24.9361724854, 22.0262813568, 6.39456046233e-15,             0, 0.0371046476066, -0.0198553930968, -0.0371046476066, 0.0198553930968, 0.837251901627,  0.8377404809, -0.837251901627, -0.8377404809, 6.95392662114e-16, 0.83761960268, 0.837476730347,             0, -0.83761960268, -0.837476730347,             0,             0,             0,             0, -0.00256589660421, 0.317189961672, 0.323849737644,             0, 0.317189961672, 0.323849737644
        0.775, -0.0381890721619, 0.0210919193923, 0.0381890721619, -0.0210919193923, -1.83852482256e-14, -3.53161864089e-16,             0, 322.989501953, -21.949798584, 322.989501953, -21.949798584, 57.0649719238, -18.9141979218, -57.0649719238, 18.9141979218, 4505.28417969, 2720.17163086, 4505.28417969, 2720.17163086,             6,             0, 7.37293635009e-16, -0.010665033944,             0,             0,             0,             0,             0, 1.68681486896e-15,             0,             0,             0,             0,             0, 1.68681486896e-15, -0.0676895529032, 0.0482972748578, 0.0676895529032, -0.0482972748578, 12.6349029541, 12.6152734756, 12.6349029541, 12.6152734756, 25.7674274445, 0.0378468930721, -0.0378468930721, -1.57142799207e-13,             1, 119.688102722,           120, 119.687843323, 25.7673149109,  22.857427597, 25.7673149109,  22.857427597, 25.7674274445, 25.7673149109,  22.857427597, 42.3907394409, 25.7673149109,  22.857427597, 5.95462298447e-15,             0, 0.0378342941403, -0.0205392986536, -0.0378342941403, 0.0205392986536, 0.837246596813, 0.837748765945, -0.837246596813, -0.837748765945, 7.37293635009e-16, 0.837621331215, 0.837475776672,             0, -0.837621331215, -0.837475776672,             0,             0,             0,             0, -0.00247042812407, 0.317189007998, 0.323849976063,             0, 0.317189007998, 0.323849976063
          0.8, -0.0388498455286, 0.0216730888933, 0.0388498455286, -0.0216730888933, -2.22080586885e-14, -7.29794005294e-16,             0, 322.149353027, -21.9348335266, 322.149353027, -21.9348335266, 58.0957641602, -19.449640274, -58.0957641602,  19.449640274,      4505.625, 2720.00341797,      4505.625, 2720.00341797,             6,             0, 7.75960741991e-16, -0.0135299460962,             0,             0,             0,             0,             0, 2.29998794871e-15,             0,             0,             0,             0,             0, 2.29998794871e-15, -0.0688698291779, 0.0497926399112, 0.0688698291779, -0.0497926399112, 13.0430660248, 13.0221977234, 13.0430660248, 13.0221977234, 26.5986537933, 0.038533680141, -0.038533680141, -1.50029674014e-13,             1, 119.697769165,           120, 119.697532654, 26.5985240936, 23.6886386871, 26.5985240936, 23.6886386871, 26.5986537933, 26.5985221863, 23.6886386871, 43.2233123779, 26.5985221863, 23.6886386871, 5.43359438389e-15,             0, 0.0385174192488, -0.021167235449, -0.0385174192488, 0.021167235449, 0.837241649628, 0.837756335735, -0.837241649628, -0.837756335735, 7.75960741991e-16, 0.83762294054, 0.837474882603,             0, -0.83762294054, -0.837474882603, -5.55111512313e-17,             0, -5.55111512313e-17,             0, -0.00238165492192, 0.317187726498, 0.323850601912,             0, 0.317187726498, 0.323850601912
        0.825, -0.0394663475454, 0.0222016051412, 0.0394663475454, -0.0222016051412, -1.96785523396e-14, -2.1799300811e-16,             0, 321.052124023, -21.9142532349, 321.052124023, -21.9142532349,  59.058216095, -19.9366569519, -59.058216095, 19.9366569519, 4506.01269531, 2719.76611328, 4506.01269531, 2719.76611328,             6,             0, 7.9803516175e-16, -0.016168454662,             0,             0,             0,             0,             0, 1.46215272047e-15,             0,             0,             0,             0,             0, 1.46215282635e-15, -0.0699709802866, 0.0511596053839, 0.0699709802866, -0.0511596053839, 13.4512586594, 13.4291543961, 13.4512586594, 13.4291543961, 27.4299449921, 0.0391752719879, -0.0391752719879, -1.41394789757e-13,             1, 119.707313538,           120, 119.707099915, 27.4297981262, 24.5199165344, 27.4297981262, 24.5199165344, 27.4299449921, 27.4297981262, 24.5199165344, 44.0559310913, 27.4297981262, 24.5199165344, 4.89106639304e-15,             0, 0.0391555279493, -0.0217408221215, -0.0391555279493, 0.0217408221215, 0.83723706007, 0.837763249874, -0.83723706007, -0.837763249874, 7.9803516175e-16, 0.837624371052, 0.837474107742,             0, -0.837624371052, -0.837474107742, -5.55111512313e-17,             0, -5.55111512313e-17,             0, -0.00229918048717, 0.317186295986, 0.323851495981,             0, 0.317186295986, 0.323851495981
         0.85, -0.0400407873094, 0.0226804837584, 0.0400407873094, -0.0226804837584, -1.1045047899e-14, -2.05632309251e-16,             0, 319.747161865, -21.8891067505, 319.747161865, -21.8891067505, 59.9550552368, -20.3779029846, -59.9550552368, 20.3779029846, 4506.41503906, 2719.49267578, 4506.41503906, 2719.49267578,             6,             0, 8.25654735638e-16, -0.018595404923,             0,             0,             0,             0,             0, 1.07178170486e-15,             0,             0,             0,             0,             0, 1.07178181074e-15, -0.0709966942668, 0.0524035431445, 0.0709966942668, -0.0524035431445, 13.8594799042,   13.83614254, 13.8594799042,   13.83614254, 28.2612991333, 0.0397736504674, -0.0397736504674, -1.36049862782e-13,             1, 119.716712952,           120, 119.716514587,  28.261138916, 25.3512592316,  28.261138916, 25.3512592316, 28.2612991333,  28.261138916, 25.3512592316, 44.8885917664,  28.261138916, 25.3512592316, 4.51239353771e-15,             0, 0.0397506095469, -0.0222624130547, -0.0397506095469, 0.0222624130547, 0.837232708931, 0.837769567966, -0.837232708931, -0.837769567966, 8.25654735638e-16, 0.837625741959, 0.837473332882,             0, -0.837625741959, -0.837473332882, -5.55111512313e-17,             0, -5.55111512313e-17,             0, -0.00222258642316, 0.317184776068, 0.32385250926,             0, 0.317184776068, 0.32385250926
        0.875, -0.0405755452812, 0.0231130495667, 0.0405755452812, -0.0231130495667, -3.98307417864e-15, -4.69804865431e-16,             0, 318.276397705, -21.8602218628, 318.276397705, -21.8602218628, 60.7896156311, -20.7764282227, -60.7896156311, 20.7764282227, 4506.81689453, 2719.20288086, 4506.81689453, 2719.20288086,             6,             0, 8.62858857901e-16, -0.0208252184093,             0,             0,             0,             0,             0, 1.48107257778e-15,             0,             0,             0,             0,             0, 1.48107268366e-15, -0.0719511285424, 0.0535313524306, 0.0719511285424, -0.0535313524306, 14.2677268982, 14.2431631088, 14.2677268982, 14.2431631088,  29.092716217, 0.0403310880065, -0.0403310880065, -1.35370555911e-13,             1, 119.725944519,           120, 119.725761414, 29.0925426483, 26.1826667786, 29.0925426483, 26.1826667786,  29.092716217, 29.0925426483, 26.1826667786, 45.7212944031, 29.0925426483, 26.1826667786, 4.35144118411e-15,             0, 0.0403049364686, -0.022734997794, -0.0403049364686, 0.022734997794, 0.837228655815, 0.837775230408, -0.837228655815, -0.837775230408, 8.62858857901e-16, 0.837626993656, 0.837472677231,             0, -0.837626993656, -0.837472677231,             0,             0,             0,             0, -0.00215147924609, 0.317183256149, 0.323853582144,             0, 0.317183256149, 0.323853582144
          0.9, -0.0410729460418, 0.023502394557, 0.0410729460418, -0.023502394557, -3.62302884837e-15, -6.9219723032e-16,             0, 316.674957275, -21.828294754, 316.674957275, -21.828294754, 61.5654907227, -21.135137558, -61.5654907227,  21.135137558, 4507.21435547, 2718.89892578, 4507.21435547, 2718.89892578,             6,             0, 9.01590127629e-16, -0.0228704586625,             0,             0,             0,             0,             0, 2.14532481474e-15,             0,             0,             0,             0,             0, 2.1453250265e-15, -0.0728384852409, 0.0545503720641, 0.0728384852409, -0.0545503720641, 14.6760005951, 14.6502132416, 14.6760005951, 14.6502132416, 29.9241962433, 0.0408499166369, -0.0408499166369, -1.36873815775e-13,             1, 119.734992981,           120, 119.734825134, 29.9240112305, 27.0141353607, 29.9240112305, 27.0141353607, 29.9241962433, 29.9240093231, 27.0141353607, 46.5540351868, 29.9240093231, 27.0141353607, 4.29927750708e-15,             0, 0.0408208444715, -0.0231617297977, -0.0408208444715, 0.0231617297977, 0.837224900723, 0.837780356407, -0.837224900723, -0.837780356407, 9.01590127629e-16, 0.837628126144, 0.83747202158,             0, -0.837628126144, -0.83747202158,             0,             0,             0,             0, -0.00208551529795, 0.317181766033, 0.323854714632,             0, 0.317181766033, 0.323854714632
        0.925, -0.0415351204574, 0.0238512065262, 0.0415351204574, -0.0238512065262, -6.36618528212e-15, -2.53645630712e-16,             0, 314.972106934, -21.7939548492, 314.972106934, -21.7939548492, 62.2861938477, -21.4565639496, -62.2861938477, 21.4565639496, 4507.61328125, 2718.57666016, 4507.61328125, 2718.57666016,             6,             0, 9.23641571619e-16, -0.0247418545187,             0,             0,             0,             0,             0, 1.50299739034e-15,             0,             0,             0,             0,             0, 1.50299749622e-15, -0.073662750423, 0.055467478931, 0.073662750423, -0.055467478931, 15.0842981339, 15.0572938919, 15.0842981339, 15.0572938919, 30.7557373047, 0.0413323454559, -0.0413323454559, -1.35687264918e-13,             1, 119.743835449,           120, 119.743682861, 30.7555389404, 27.8456668854, 30.7555389404, 27.8456668854, 30.7557373047, 30.7555389404, 27.8456668854,  47.386806488, 30.7555389404, 27.8456668854, 4.15689338623e-15,             0, 0.0413005426526, -0.0235455557704, -0.0413005426526, 0.0235455557704, 0.837221384048, 0.837785005569, -0.837221384048, -0.837785005569, 9.23641571619e-16, 0.837629199028, 0.837471485138,             0, -0.837629199028, -0.837471485138,             0, 5.55111512313e-17,             0, 5.55111512313e-17, -0.00202439981513, 0.317180275917, 0.323855906725,             0, 0.317180275917, 0.323855906725
         0.95, -0.0419639982283, 0.0241619069129, 0.0419639982283, -0.0241619069129, -7.58390017588e-15, -3.84323279776e-16,             0,  313.19229126, -21.7577762604,  313.19229126, -21.7577762604, 62.9549636841, -21.7429695129, -62.9549636841, 21.7429695129, 4508.01953125, 2718.23461914, 4508.01953125, 2718.23461914,             6,             0, 9.42712730185e-16, -0.0264491401613,             0,             0,             0,             0,             0, 8.57140379656e-16,             0,             0,             0,             0,             0, 8.57140432595e-16, -0.0744275376201, 0.056288857013, 0.0744275376201, -0.056288857013, 15.4926195145, 15.4644050598, 15.4926195145, 15.4644050598, 31.5873374939, 0.041780397296, -0.041780397296, -1.33271310112e-13,             1, 119.752471924,           120, 119.752334595, 31.5871276855, 28.6772575378, 31.5871276855, 28.6772575378, 31.5873374939, 31.5871276855, 28.6772575378, 48.2196044922, 31.5871276855, 28.6772575378, 3.96044357587e-15,             0, 0.0417460426688, -0.0238891188055, -0.0417460426688, 0.0238891188055, 0.837218105793, 0.837789177895, -0.837218105793, -0.837789177895, 9.42712730185e-16, 0.837630152702, 0.837471008301,             0, -0.837630152702, -0.837471008301, 5.55111512313e-17, -5.55111512313e-17, 5.55111512313e-17, -5.55111512313e-17, -0.00196787063032, 0.317178755999, 0.323857188225,             0, 0.317178755999, 0.323857188225
        0.975, -0.0423613525927, 0.0244368836284, 0.0423613525927, -0.0244368836284, -4.72557478988e-15, -5.00700762759e-16,             0, 311.356170654, -21.7202644348, 311.356170654, -21.7202644348, 63.5747108459, -21.9965419769, -63.5747108459, 21.9965419769, 4508.43652344, 2717.87670898, 4508.43652344, 2717.87670898,             6,             0, 9.6602106519e-16, -0.0280018821359,             0,             0,             0,             0,             0, 8.77892898622e-16,             0,             0,             0,             0,             0, 8.77893004501e-16, -0.0751361176372, 0.0570202842355, 0.0751361176372, -0.0570202842355, 15.9009637833, 15.8715438843, 15.9009637833, 15.8715438843, 32.4189949036, 0.0421959012747, -0.0421959012747, -1.31897232936e-13,             1, 119.760894775,           120, 119.760772705, 32.4187774658, 29.5089073181, 32.4187774658, 29.5089073181, 32.4189949036, 32.4187774658, 29.5089073181, 49.0524330139, 32.4187774658, 29.5089073181, 3.80764772603e-15,             0, 0.0421591848135, -0.0241948906332, -0.0421591848135, 0.0241948906332, 0.837215125561, 0.837792813778, -0.837215125561, -0.837792813778, 9.6602106519e-16, 0.837631046772, 0.837470531464,             0, -0.837631046772, -0.837470531464, -5.55111512313e-17,             0, -5.55111512313e-17,             0, -0.00191567966249, 0.317177206278, 0.323858499527,             0, 0.317177206278, 0.323858499527
            1, -0.0427288487554, 0.0246785990894, 0.0427288487554, -0.0246785990894, -4.04081302652e-15, -3.92934137308e-16,             0, 309.481414795, -21.681842804, 309.481414795, -21.681842804, 64.1480941772, -22.2195262909, -64.1480941772, 22.2195262909, 4508.86181641, 2717.51000977, 4508.86181641, 2717.51000977,             6,             0, 9.89341470415e-16, -0.029409814626,             0,             0,             0,             0,             0, 1.13111540991e-15,             0,             0,             0,             0,             0, 1.13111551579e-15, -0.0757915526628, 0.0576675049961, 0.0757915526628, -0.0576675049961, 16.3093299866,  16.278711319, 16.3093299866,  16.278711319, 33.2507095337, 0.0425805747509, -0.0425805747509, -1.31458930655e-13,             1, 119.769096375,           120, 119.768981934, 33.2504806519, 30.3406143188, 33.2504806519, 30.3406143188, 33.2507095337, 33.2504806519, 30.3406143188, 49.8852882385, 33.2504806519, 30.3406143188, 3.70409794823e-15,             0, 0.0425416752696, -0.0244653131813, -0.0425416752696, 0.0244653131813, 0.837212324142, 0.837796092033, -0.837212324142, -0.837796092033, 9.89341470415e-16, 0.837631881237, 0.837470114231,             0, -0.837631881237, -0.837470114231,             0,             0,             0,             0, -0.00186758243944, 0.317175596952, 0.323859870434,             0, 0.317175596952, 0.323859870434
